{
    "brisbane": [
  {
    "Ward": "CENTRAL",
    "Suburb": "BOWEN HILLS",
    "Property_Code": "D0087",
    "Park_Name": "BOWEN PARK",
    "Node_Id": 24063,
    "Node_Name": "BOWEN PK FORMAL GARDENS",
    "Item_Id": 1617,
    "Item_Type": "BUBBLER/DRINKING FOUNTAIN",
    "Item_Description": "DRINKING FOUNTAIN",
    "Latitude": -27.4490972,
    "Longitude": 153.0292193,
    "Easting": 502887,
    "Northing": 6963821
  },
  {
    "Ward": "CENTRAL",
    "Suburb": "BOWEN HILLS",
    "Property_Code": "D0087",
    "Park_Name": "BOWEN PARK",
    "Node_Id": 24063,
    "Node_Name": "BOWEN PK FORMAL GARDENS",
    "Item_Id": 34592,
    "Item_Type": "TAP COMBINATION",
    "Item_Description": "BUBBLER & TAP",
    "Latitude": -27.4488617,
    "Longitude": 153.0293348,
    "Easting": 502899,
    "Northing": 6963847
  },
  {
    "Ward": "CENTRAL",
    "Suburb": "BOWEN HILLS",
    "Property_Code": "D0087",
    "Park_Name": "BOWEN PARK",
    "Node_Id": 24063,
    "Node_Name": "BOWEN PK FORMAL GARDENS",
    "Item_Id": 79343,
    "Item_Type": "TAP COMBINATION",
    "Item_Description": "BUBBLER & TAP",
    "Latitude": -27.4481868,
    "Longitude": 153.0302469,
    "Easting": 502989,
    "Northing": 6963922
  },
  {
    "Ward": "CENTRAL",
    "Suburb": "BOWEN HILLS",
    "Property_Code": "D1984",
    "Park_Name": "JEAYS STREET PARK",
    "Node_Id": 12336,
    "Node_Name": "BALANCE OF PARK",
    "Item_Id": 38056,
    "Item_Type": "BUBBLER/DRINKING FOUNTAIN",
    "Item_Description": "DIABLED ACCESS BUBBLER",
    "Latitude": -27.4487881,
    "Longitude": 153.0362064,
    "Easting": 503578,
    "Northing": 6963855
  },
  {
    "Ward": "CENTRAL",
    "Suburb": "BRISBANE CITY",
    "Property_Code": "D0082",
    "Park_Name": "ANZAC SQUARE",
    "Node_Id": 24044,
    "Node_Name": "SHRINE OF REMEMBRANCE",
    "Item_Id": 82580,
    "Item_Type": "BUBBLER/DRINKING FOUNTAIN",
    "Item_Description": "BUBBLER",
    "Latitude": -27.4664855,
    "Longitude": 153.0264626,
    "Easting": 502615,
    "Northing": 6961895
  },
  {
    "Ward": "CENTRAL",
    "Suburb": "BRISBANE CITY",
    "Property_Code": "D0082",
    "Park_Name": "ANZAC SQUARE",
    "Node_Id": 24044,
    "Node_Name": "SHRINE OF REMEMBRANCE",
    "Item_Id": 34586,
    "Item_Type": "BUBBLER/DRINKING FOUNTAIN",
    "Item_Description": "BOWL SHAPED DRINKING FOUNTAIN",
    "Latitude": -27.4663534,
    "Longitude": 153.0266365,
    "Easting": 502632,
    "Northing": 6961910
  },
  {
    "Ward": "CENTRAL",
    "Suburb": "BRISBANE CITY",
    "Property_Code": "D0092",
    "Park_Name": "KING EDWARD PARK",
    "Node_Id": 12634,
    "Node_Name": "KING EDWARD PK SCULPTURE PARK",
    "Item_Id": 70020,
    "Item_Type": "TAP COMBINATION",
    "Item_Description": "BUBBLER & TAP NEAR CHESS PAVEMENT",
    "Latitude": -27.4657953,
    "Longitude": 153.0236887,
    "Easting": 502341,
    "Northing": 6961972
  },
  {
    "Ward": "CENTRAL",
    "Suburb": "BRISBANE CITY",
    "Property_Code": "D0092",
    "Park_Name": "KING EDWARD PARK",
    "Node_Id": 12634,
    "Node_Name": "KING EDWARD PK SCULPTURE PARK",
    "Item_Id": 70023,
    "Item_Type": "TAP COMBINATION",
    "Item_Description": "BUBBLER & ANTI-VANDAL TAP NEAR JACOBS LA",
    "Latitude": -27.4658626,
    "Longitude": 153.0243761,
    "Easting": 502408,
    "Northing": 6961964
  },
  {
    "Ward": "CENTRAL",
    "Suburb": "BRISBANE CITY",
    "Property_Code": "D0094",
    "Park_Name": "EMMA MILLER PLACE",
    "Node_Id": 12543,
    "Node_Name": "ROMA ST FORUM",
    "Item_Id": 83970,
    "Item_Type": "TAP COMBINATION",
    "Item_Description": "BUBBLER & 2 TAPS",
    "Latitude": -27.4670254,
    "Longitude": 153.0215589,
    "Easting": 502130,
    "Northing": 6961835
  },
  {
    "Ward": "CENTRAL",
    "Suburb": "BRISBANE CITY",
    "Property_Code": "D0094",
    "Park_Name": "EMMA MILLER PLACE",
    "Node_Id": 12543,
    "Node_Name": "ROMA ST FORUM",
    "Item_Id": 83677,
    "Item_Type": "TAP COMBINATION",
    "Item_Description": "BUBBLER & 2 TAPS",
    "Latitude": -27.4671073,
    "Longitude": 153.0222037,
    "Easting": 502194,
    "Northing": 6961826
  },
  {
    "Ward": "CENTRAL",
    "Suburb": "BRISBANE CITY",
    "Property_Code": "D0096",
    "Park_Name": "CITY BOTANIC GARDENS",
    "Node_Id": 12516,
    "Node_Name": "BALANCE OF PARK",
    "Item_Id": 133888,
    "Item_Type": "BUBBLER/DRINKING FOUNTAIN",
    "Item_Description": "DIABLED ACCESS BUBBLER",
    "Latitude": -27.4754079,
    "Longitude": 153.0286773,
    "Easting": 502833,
    "Northing": 6960907
  },
  {
    "Ward": "CENTRAL",
    "Suburb": "BRISBANE CITY",
    "Property_Code": "D0096",
    "Park_Name": "CITY BOTANIC GARDENS",
    "Node_Id": 12516,
    "Node_Name": "BALANCE OF PARK",
    "Item_Id": 37218,
    "Item_Type": "BUBBLER/DRINKING FOUNTAIN",
    "Item_Description": "DRINKING FOUNTAIN",
    "Latitude": -27.4788978,
    "Longitude": 153.0287439,
    "Easting": 502840,
    "Northing": 6960520
  },
  {
    "Ward": "CENTRAL",
    "Suburb": "BRISBANE CITY",
    "Property_Code": "D0096",
    "Park_Name": "CITY BOTANIC GARDENS",
    "Node_Id": 12516,
    "Node_Name": "BALANCE OF PARK",
    "Item_Id": 133115,
    "Item_Type": "BUBBLER/DRINKING FOUNTAIN",
    "Item_Description": "DIABLED ACCESS BUBBLER",
    "Latitude": -27.4772831,
    "Longitude": 153.0304334,
    "Easting": 503007,
    "Northing": 6960699
  },
  {
    "Ward": "CENTRAL",
    "Suburb": "BRISBANE CITY",
    "Property_Code": "D0096",
    "Park_Name": "CITY BOTANIC GARDENS",
    "Node_Id": 12516,
    "Node_Name": "BALANCE OF PARK",
    "Item_Id": 133295,
    "Item_Type": "BUBBLER/DRINKING FOUNTAIN",
    "Item_Description": "DIABLED ACCESS BUBBLER",
    "Latitude": -27.4744193,
    "Longitude": 153.0305353,
    "Easting": 503017,
    "Northing": 6961016
  },
  {
    "Ward": "CENTRAL",
    "Suburb": "BRISBANE CITY",
    "Property_Code": "D0096",
    "Park_Name": "CITY BOTANIC GARDENS",
    "Node_Id": 12516,
    "Node_Name": "BALANCE OF PARK",
    "Item_Id": 33636,
    "Item_Type": "BUBBLER/DRINKING FOUNTAIN",
    "Item_Description": "DISABLED ACCESS FOUNTAIN",
    "Latitude": -27.4760785,
    "Longitude": 153.0307241,
    "Easting": 503035,
    "Northing": 6960833
  },
  {
    "Ward": "CENTRAL",
    "Suburb": "BRISBANE CITY",
    "Property_Code": "D0096",
    "Park_Name": "CITY BOTANIC GARDENS",
    "Node_Id": 12516,
    "Node_Name": "BALANCE OF PARK",
    "Item_Id": 133974,
    "Item_Type": "TAP COMBINATION",
    "Item_Description": "BUBBLER & 2 TAPS",
    "Latitude": -27.4761114,
    "Longitude": 153.0289927,
    "Easting": 502864,
    "Northing": 6960829
  },
  {
    "Ward": "CENTRAL",
    "Suburb": "BRISBANE CITY",
    "Property_Code": "D0096",
    "Park_Name": "CITY BOTANIC GARDENS",
    "Node_Id": 12516,
    "Node_Name": "BALANCE OF PARK",
    "Item_Id": 133366,
    "Item_Type": "TAP COMBINATION",
    "Item_Description": "BUBBLER & 2 TAPS",
    "Latitude": -27.4764261,
    "Longitude": 153.0296389,
    "Easting": 502928,
    "Northing": 6960794
  },
  {
    "Ward": "CENTRAL",
    "Suburb": "BRISBANE CITY",
    "Property_Code": "D0096",
    "Park_Name": "CITY BOTANIC GARDENS",
    "Node_Id": 12516,
    "Node_Name": "BALANCE OF PARK",
    "Item_Id": 133576,
    "Item_Type": "TAP COMBINATION",
    "Item_Description": "BUBBLER & 2 TAPS",
    "Latitude": -27.4731253,
    "Longitude": 153.0300367,
    "Easting": 502968,
    "Northing": 6961160
  },
  {
    "Ward": "CENTRAL",
    "Suburb": "BRISBANE CITY",
    "Property_Code": "D0096",
    "Park_Name": "CITY BOTANIC GARDENS",
    "Node_Id": 12516,
    "Node_Name": "BALANCE OF PARK",
    "Item_Id": 133003,
    "Item_Type": "TAP COMBINATION",
    "Item_Description": "BUBBLER & TAP",
    "Latitude": -27.4757524,
    "Longitude": 153.0306732,
    "Easting": 503030,
    "Northing": 6960869
  },
  {
    "Ward": "CENTRAL",
    "Suburb": "BRISBANE CITY",
    "Property_Code": "D0096",
    "Park_Name": "CITY BOTANIC GARDENS",
    "Node_Id": 12516,
    "Node_Name": "BALANCE OF PARK",
    "Item_Id": 133002,
    "Item_Type": "TAP COMBINATION",
    "Item_Description": "BUBBLER & TAP",
    "Latitude": -27.4756452,
    "Longitude": 153.0307153,
    "Easting": 503034,
    "Northing": 6960881
  },
  {
    "Ward": "CENTRAL",
    "Suburb": "BRISBANE CITY",
    "Property_Code": "D0096",
    "Park_Name": "CITY BOTANIC GARDENS",
    "Node_Id": 12516,
    "Node_Name": "BALANCE OF PARK",
    "Item_Id": 132899,
    "Item_Type": "TAP COMBINATION",
    "Item_Description": "BUBBLER & 2 TAPS",
    "Latitude": -27.4746759,
    "Longitude": 153.0312301,
    "Easting": 503085,
    "Northing": 6960988
  },
  {
    "Ward": "CENTRAL",
    "Suburb": "BRISBANE CITY",
    "Property_Code": "D0096",
    "Park_Name": "CITY BOTANIC GARDENS",
    "Node_Id": 12521,
    "Node_Name": "ORNAMENTAL PONDS",
    "Item_Id": 8250,
    "Item_Type": "TAP COMBINATION",
    "Item_Description": "BUBBLER & TAP",
    "Latitude": -27.4740925,
    "Longitude": 153.0292592,
    "Easting": 502891,
    "Northing": 6961053
  },
  {
    "Ward": "CENTRAL",
    "Suburb": "BRISBANE CITY",
    "Property_Code": "D0096",
    "Park_Name": "CITY BOTANIC GARDENS",
    "Node_Id": 23308,
    "Node_Name": "BRISBANE RIVER STAGE NODE",
    "Item_Id": 132676,
    "Item_Type": "TAP COMBINATION",
    "Item_Description": "BUBBLER & 2 TAPS",
    "Latitude": -27.4789502,
    "Longitude": 153.0293266,
    "Easting": 502897,
    "Northing": 6960514
  },
  {
    "Ward": "CENTRAL",
    "Suburb": "BRISBANE CITY",
    "Property_Code": "D0096",
    "Park_Name": "CITY BOTANIC GARDENS",
    "Node_Id": 23803,
    "Node_Name": "BASKETBALL HALF COURT",
    "Item_Id": 38001,
    "Item_Type": "TAP COMBINATION",
    "Item_Description": "BUBBLER & TAP",
    "Latitude": -27.4779694,
    "Longitude": 153.0312519,
    "Easting": 503087,
    "Northing": 6960623
  },
  {
    "Ward": "CENTRAL",
    "Suburb": "BRISBANE CITY",
    "Property_Code": "D0096",
    "Park_Name": "CITY BOTANIC GARDENS",
    "Node_Id": 23804,
    "Node_Name": "ALBERT ST (ALICE ST) ENTRANCE",
    "Item_Id": 133689,
    "Item_Type": "BUBBLER/DRINKING FOUNTAIN",
    "Item_Description": "DIABLED ACCESS BUBBLER",
    "Latitude": -27.4735846,
    "Longitude": 153.0291963,
    "Easting": 502884,
    "Northing": 6961109
  },
  {
    "Ward": "CENTRAL",
    "Suburb": "BRISBANE CITY",
    "Property_Code": "D0096",
    "Park_Name": "CITY BOTANIC GARDENS",
    "Node_Id": 23805,
    "Node_Name": "THE DOMAIN & GOODWILL BRIDGE PATHWAY NETWORK",
    "Item_Id": 130657,
    "Item_Type": "TAP COMBINATION",
    "Item_Description": "BUBBLER & TAP",
    "Latitude": -27.4793133,
    "Longitude": 153.0291305,
    "Easting": 502878,
    "Northing": 6960474
  },
  {
    "Ward": "CENTRAL",
    "Suburb": "BRISBANE CITY",
    "Property_Code": "D0096",
    "Park_Name": "CITY BOTANIC GARDENS",
    "Node_Id": 23809,
    "Node_Name": "BOOKING SITE 1 MORNING STAR LAWN",
    "Item_Id": 134097,
    "Item_Type": "BUBBLER/DRINKING FOUNTAIN",
    "Item_Description": "DIABLED ACCESS BUBBLER",
    "Latitude": -27.4750215,
    "Longitude": 153.0279453,
    "Easting": 502761,
    "Northing": 6960950
  },
  {
    "Ward": "CENTRAL",
    "Suburb": "BRISBANE CITY",
    "Property_Code": "D0096",
    "Park_Name": "CITY BOTANIC GARDENS",
    "Node_Id": 23810,
    "Node_Name": "RAINFOREST GARDEN",
    "Item_Id": 130752,
    "Item_Type": "TAP COMBINATION",
    "Item_Description": "BUBBLER & 2 TAPS",
    "Latitude": -27.4773427,
    "Longitude": 153.03143,
    "Easting": 503105,
    "Northing": 6960692
  },
  {
    "Ward": "CENTRAL",
    "Suburb": "BRISBANE CITY",
    "Property_Code": "D0096",
    "Park_Name": "CITY BOTANIC GARDENS",
    "Node_Id": 23815,
    "Node_Name": "BOOKING SITE 5 CIRCLE OF PALMS LAWN",
    "Item_Id": 130861,
    "Item_Type": "TAP COMBINATION",
    "Item_Description": "BUBBLER & 2 TAPS",
    "Latitude": -27.4732694,
    "Longitude": 153.0307548,
    "Easting": 503038,
    "Northing": 6961144
  },
  {
    "Ward": "CENTRAL",
    "Suburb": "BRISBANE CITY",
    "Property_Code": "D0099",
    "Park_Name": "KING GEORGE SQUARE PROPERTY",
    "Node_Id": 12506,
    "Node_Name": "BALANCE OF PARK",
    "Item_Id": 84916,
    "Item_Type": "BUBBLER/DRINKING FOUNTAIN",
    "Item_Description": "BUBBLER",
    "Latitude": -27.4682584,
    "Longitude": 153.0240048,
    "Easting": 502372,
    "Northing": 6961699
  },
  {
    "Ward": "CENTRAL",
    "Suburb": "BRISBANE CITY",
    "Property_Code": "D0099",
    "Park_Name": "KING GEORGE SQUARE PROPERTY",
    "Node_Id": 12506,
    "Node_Name": "BALANCE OF PARK",
    "Item_Id": 33634,
    "Item_Type": "BUBBLER/DRINKING FOUNTAIN",
    "Item_Description": "DRINKING FOUNTAIN",
    "Latitude": -27.4681247,
    "Longitude": 153.024032,
    "Easting": 502374,
    "Northing": 6961714
  },
  {
    "Ward": "CENTRAL",
    "Suburb": "BRISBANE CITY",
    "Property_Code": "D0099",
    "Park_Name": "KING GEORGE SQUARE PROPERTY",
    "Node_Id": 12506,
    "Node_Name": "BALANCE OF PARK",
    "Item_Id": 84903,
    "Item_Type": "BUBBLER/DRINKING FOUNTAIN",
    "Item_Description": "BUBBLER",
    "Latitude": -27.4684737,
    "Longitude": 153.0246312,
    "Easting": 502434,
    "Northing": 6961675
  },
  {
    "Ward": "CENTRAL",
    "Suburb": "BRISBANE CITY",
    "Property_Code": "D0101",
    "Park_Name": "CLARK LANE PARK",
    "Node_Id": 12503,
    "Node_Name": "BALANCE OF PARK",
    "Item_Id": 33631,
    "Item_Type": "BUBBLER/DRINKING FOUNTAIN",
    "Item_Description": "DRINKING FOUNTAIN",
    "Latitude": -27.4635258,
    "Longitude": 153.0310912,
    "Easting": 503072,
    "Northing": 6962223
  },
  {
    "Ward": "CENTRAL",
    "Suburb": "BRISBANE CITY",
    "Property_Code": "D0792",
    "Park_Name": "POST OFFICE SQUARE",
    "Node_Id": 12480,
    "Node_Name": "POST OFFICE SQUARE",
    "Item_Id": 33635,
    "Item_Type": "BUBBLER/DRINKING FOUNTAIN",
    "Item_Description": "DRINKING FOUNTAIN",
    "Latitude": -27.4673462,
    "Longitude": 153.0275799,
    "Easting": 502725,
    "Northing": 6961800
  },
  {
    "Ward": "CENTRAL",
    "Suburb": "BRISBANE",
    "Property_Code": "D1784",
    "Park_Name": "ADMIRALTY TOWERS 11 PARK",
    "Node_Id": 12349,
    "Node_Name": "BALANCE OF PARK",
    "Item_Id": 33632,
    "Item_Type": "BUBBLER/DRINKING FOUNTAIN",
    "Item_Description": "DRINKING FOUNTAIN",
    "Latitude": -27.4643263,
    "Longitude": 153.0317037,
    "Easting": 503132,
    "Northing": 6962134
  },
  {
    "Ward": "CENTRAL",
    "Suburb": "HERSTON",
    "Property_Code": "D0083",
    "Park_Name": "VICTORIA PARK",
    "Node_Id": 15420,
    "Node_Name": "GREGORY TCE DOG OFF LEASH AREA (SPRING HILL)",
    "Item_Id": 31562,
    "Item_Type": "TAP COMBINATION",
    "Item_Description": "BUBBLER, TAP & DOG BOWL",
    "Latitude": -27.4544189,
    "Longitude": 153.0255065,
    "Easting": 502520,
    "Northing": 6963232
  },
  {
    "Ward": "CENTRAL",
    "Suburb": "HERSTON",
    "Property_Code": "D0083",
    "Park_Name": "VICTORIA PARK",
    "Node_Id": 15420,
    "Node_Name": "GREGORY TCE DOG OFF LEASH AREA (SPRING HILL)",
    "Item_Id": 109590,
    "Item_Type": "TAP COMBINATION",
    "Item_Description": "BUBBLER & 2 TAPS",
    "Latitude": -27.4539409,
    "Longitude": 153.0256617,
    "Easting": 502536,
    "Northing": 6963285
  },
  {
    "Ward": "CENTRAL",
    "Suburb": "HERSTON",
    "Property_Code": "D0083",
    "Park_Name": "VICTORIA PARK",
    "Node_Id": 15420,
    "Node_Name": "GREGORY TCE DOG OFF LEASH AREA (SPRING HILL)",
    "Item_Id": 109594,
    "Item_Type": "TAP COMBINATION",
    "Item_Description": "BUBBLER & 2 TAPS",
    "Latitude": -27.4540323,
    "Longitude": 153.026049,
    "Easting": 502574,
    "Northing": 6963275
  },
  {
    "Ward": "CENTRAL",
    "Suburb": "HERSTON",
    "Property_Code": "D0083",
    "Park_Name": "VICTORIA PARK",
    "Node_Id": 15422,
    "Node_Name": "GILCHRIST AVE TOILET",
    "Item_Id": 33642,
    "Item_Type": "TAP COMBINATION",
    "Item_Description": "BUBBLER",
    "Latitude": -27.4507004,
    "Longitude": 153.0263123,
    "Easting": 502600,
    "Northing": 6963644
  },
  {
    "Ward": "CENTRAL",
    "Suburb": "HERSTON",
    "Property_Code": "D0083",
    "Park_Name": "VICTORIA PARK",
    "Node_Id": 15421,
    "Node_Name": "GREGORY TCE PLAYGROUND (SPRING HILL)",
    "Item_Id": 109432,
    "Item_Type": "BUBBLER/DRINKING FOUNTAIN",
    "Item_Description": "DISABLED ACCESS BUBBLER",
    "Latitude": -27.4545079,
    "Longitude": 153.0250842,
    "Easting": 502479,
    "Northing": 6963222
  },
  {
    "Ward": "CENTRAL",
    "Suburb": "HERSTON",
    "Property_Code": "D0083",
    "Park_Name": "VICTORIA PARK",
    "Node_Id": 15423,
    "Node_Name": "VICTORIA PK GOLF COURSE",
    "Item_Id": 109838,
    "Item_Type": "BUBBLER/DRINKING FOUNTAIN",
    "Item_Description": "BUBBLER",
    "Latitude": -27.4558723,
    "Longitude": 153.0212541,
    "Easting": 502100,
    "Northing": 6963071
  },
  {
    "Ward": "CENTRAL",
    "Suburb": "HERSTON",
    "Property_Code": "D0083",
    "Park_Name": "VICTORIA PARK",
    "Node_Id": 15423,
    "Node_Name": "VICTORIA PK GOLF COURSE",
    "Item_Id": 109839,
    "Item_Type": "BUBBLER/DRINKING FOUNTAIN",
    "Item_Description": "BUBBLER",
    "Latitude": -27.4557045,
    "Longitude": 153.0215662,
    "Easting": 502131,
    "Northing": 6963089
  },
  {
    "Ward": "CENTRAL",
    "Suburb": "HERSTON",
    "Property_Code": "D0083",
    "Park_Name": "VICTORIA PARK",
    "Node_Id": 15423,
    "Node_Name": "VICTORIA PK GOLF COURSE",
    "Item_Id": 109873,
    "Item_Type": "BUBBLER/DRINKING FOUNTAIN",
    "Item_Description": "BUBBLER",
    "Latitude": -27.451036,
    "Longitude": 153.0233294,
    "Easting": 502305,
    "Northing": 6963607
  },
  {
    "Ward": "CENTRAL",
    "Suburb": "HERSTON",
    "Property_Code": "D0083",
    "Park_Name": "VICTORIA PARK",
    "Node_Id": 15426,
    "Node_Name": "BALANCE OF PARK",
    "Item_Id": 1321,
    "Item_Type": "BUBBLER/DRINKING FOUNTAIN",
    "Item_Description": "DRINKING FOUNTAIN",
    "Latitude": -27.4513638,
    "Longitude": 153.0243609,
    "Easting": 502407,
    "Northing": 6963570
  },
  {
    "Ward": "CENTRAL",
    "Suburb": "HERSTON",
    "Property_Code": "D0083",
    "Park_Name": "VICTORIA PARK",
    "Node_Id": 24470,
    "Node_Name": "VICTORIA PK (GREGORY TCE) SHARED PATHWAY NETWORK",
    "Item_Id": 50865,
    "Item_Type": "TAP COMBINATION",
    "Item_Description": "BUBBLER & 2 TAPS",
    "Latitude": -27.457574,
    "Longitude": 153.023692,
    "Easting": 502341,
    "Northing": 6962882
  },
  {
    "Ward": "CENTRAL",
    "Suburb": "HERSTON",
    "Property_Code": "D0083",
    "Park_Name": "VICTORIA PARK",
    "Node_Id": 32224,
    "Node_Name": "GREGORY TCE ACCESS & CAR PARKING",
    "Item_Id": 25414,
    "Item_Type": "TAP COMBINATION",
    "Item_Description": "BUBBLER & TAP",
    "Latitude": -27.4530476,
    "Longitude": 153.0277848,
    "Easting": 502746,
    "Northing": 6963384
  },
  {
    "Ward": "CENTRAL",
    "Suburb": "HERSTON",
    "Property_Code": "D0103",
    "Park_Name": "GOULD ROAD PARK",
    "Node_Id": 25331,
    "Node_Name": "GOULD RD PICNIC AREA",
    "Item_Id": 16716,
    "Item_Type": "TAP COMBINATION",
    "Item_Description": "BUBBLER & TAP",
    "Latitude": -27.4425738,
    "Longitude": 153.0205517,
    "Easting": 502031,
    "Northing": 6964544
  },
  {
    "Ward": "PADDINGTON",
    "Suburb": "KELVIN GROVE",
    "Property_Code": "D0175",
    "Park_Name": "E. E. MCCASKIE OVAL",
    "Node_Id": 15403,
    "Node_Name": "BALANCE OF PARK",
    "Item_Id": 35438,
    "Item_Type": "BUBBLER/DRINKING FOUNTAIN",
    "Item_Description": "DRINKING FOUNTAIN",
    "Latitude": -27.4540606,
    "Longitude": 153.0122706,
    "Easting": 501213,
    "Northing": 6963272
  },
  {
    "Ward": "PADDINGTON",
    "Suburb": "KELVIN GROVE",
    "Property_Code": "D2472",
    "Park_Name": "MAIDSTONE STREET PARK",
    "Node_Id": 29857,
    "Node_Name": "MAIDSTONE ST PICNIC AREA",
    "Item_Id": 111619,
    "Item_Type": "BUBBLER/DRINKING FOUNTAIN",
    "Item_Description": "DRINKING FOUNTAIN",
    "Latitude": -27.4547124,
    "Longitude": 153.0159034,
    "Easting": 501571,
    "Northing": 6963199
  },
  {
    "Ward": "PADDINGTON",
    "Suburb": "KELVIN GROVE",
    "Property_Code": "D2996",
    "Park_Name": "GREY GUMS PARK",
    "Node_Id": 26629,
    "Node_Name": "BASKETBALL COURT",
    "Item_Id": 174847,
    "Item_Type": "BUBBLER/DRINKING FOUNTAIN",
    "Item_Description": "DIABLED ACCESS BUBBLER",
    "Latitude": -27.4515941,
    "Longitude": 153.013508,
    "Easting": 501335,
    "Northing": 6963545
  },
  {
    "Ward": "CENTRAL",
    "Suburb": "NEW FARM",
    "Property_Code": "D0080",
    "Park_Name": "MERTHYR PARK",
    "Node_Id": 12578,
    "Node_Name": "MERTHYR PK PLAYGROUND",
    "Item_Id": 1167,
    "Item_Type": "BUBBLER/DRINKING FOUNTAIN",
    "Item_Description": "FOUNTAIN - DISABLED ACCESS",
    "Latitude": -27.4754026,
    "Longitude": 153.0447949,
    "Easting": 504425,
    "Northing": 6960907
  },
  {
    "Ward": "CENTRAL",
    "Suburb": "NEW FARM",
    "Property_Code": "D0080",
    "Park_Name": "MERTHYR PARK",
    "Node_Id": 12580,
    "Node_Name": "MERTHYR PK SHARED PATHWAY",
    "Item_Id": 34580,
    "Item_Type": "TAP COMBINATION",
    "Item_Description": "BUBBLER & TAP",
    "Latitude": -27.4753818,
    "Longitude": 153.0440438,
    "Easting": 504351,
    "Northing": 6960909
  },
  {
    "Ward": "CENTRAL",
    "Suburb": "NEW FARM",
    "Property_Code": "D0089",
    "Park_Name": "WILSON OUTLOOK RESERVE",
    "Node_Id": 12559,
    "Node_Name": "BALANCE OF PARK",
    "Item_Id": 45727,
    "Item_Type": "BUBBLER/DRINKING FOUNTAIN",
    "Item_Description": "BUBBLER",
    "Latitude": -27.4629456,
    "Longitude": 153.0386119,
    "Easting": 503815,
    "Northing": 6962287
  },
  {
    "Ward": "CENTRAL",
    "Suburb": "NEW FARM",
    "Property_Code": "D0089",
    "Park_Name": "WILSON OUTLOOK RESERVE",
    "Node_Id": 12559,
    "Node_Name": "BALANCE OF PARK",
    "Item_Id": 118384,
    "Item_Type": "BUBBLER/DRINKING FOUNTAIN",
    "Item_Description": "BUBBLER",
    "Latitude": -27.4634502,
    "Longitude": 153.0391503,
    "Easting": 503868,
    "Northing": 6962231
  },
  {
    "Ward": "CENTRAL",
    "Suburb": "NEW FARM",
    "Property_Code": "D0095",
    "Park_Name": "NEW FARM PARK",
    "Node_Id": 12527,
    "Node_Name": "DIXON ST PLAYGROUND & HALF COURT",
    "Item_Id": 68592,
    "Item_Type": "TAP COMBINATION",
    "Item_Description": "BUBBLER & 2 TAPS",
    "Latitude": -27.4680684,
    "Longitude": 153.0502774,
    "Easting": 504967,
    "Northing": 6961719
  },
  {
    "Ward": "CENTRAL",
    "Suburb": "NEW FARM",
    "Property_Code": "D0095",
    "Park_Name": "NEW FARM PARK",
    "Node_Id": 12531,
    "Node_Name": "HALF BASKETBALL",
    "Item_Id": 145578,
    "Item_Type": "TAP COMBINATION",
    "Item_Description": "BUBBLER & TAP",
    "Latitude": -27.4678983,
    "Longitude": 153.0514837,
    "Easting": 505087,
    "Northing": 6961738
  },
  {
    "Ward": "CENTRAL",
    "Suburb": "NEW FARM",
    "Property_Code": "D0095",
    "Park_Name": "NEW FARM PARK",
    "Node_Id": 12533,
    "Node_Name": "SYDNEY ST SOCCER FIELDS",
    "Item_Id": 161265,
    "Item_Type": "TAP COMBINATION",
    "Item_Description": "TAP COMBINATION",
    "Latitude": -27.4677175,
    "Longitude": 153.0492776,
    "Easting": 504869,
    "Northing": 6961758
  },
  {
    "Ward": "CENTRAL",
    "Suburb": "NEW FARM",
    "Property_Code": "D0095",
    "Park_Name": "NEW FARM PARK",
    "Node_Id": 12533,
    "Node_Name": "SYDNEY ST SOCCER FIELDS",
    "Item_Id": 178948,
    "Item_Type": "TAP COMBINATION",
    "Item_Description": "BUBBLER & TAP",
    "Latitude": -27.4682359,
    "Longitude": 153.0511599,
    "Easting": 505055,
    "Northing": 6961701
  },
  {
    "Ward": "CENTRAL",
    "Suburb": "NEW FARM",
    "Property_Code": "D0095",
    "Park_Name": "NEW FARM PARK",
    "Node_Id": 12538,
    "Node_Name": "FIG TREE PLAYGROUND PICNIC AREA",
    "Item_Id": 31576,
    "Item_Type": "BUBBLER/DRINKING FOUNTAIN",
    "Item_Description": "BUBBLER - SINGLE",
    "Latitude": -27.4684647,
    "Longitude": 153.0522787,
    "Easting": 505165,
    "Northing": 6961675
  },
  {
    "Ward": "CENTRAL",
    "Suburb": "NEW FARM",
    "Property_Code": "D0095",
    "Park_Name": "NEW FARM PARK",
    "Node_Id": 12538,
    "Node_Name": "FIG TREE PLAYGROUND PICNIC AREA",
    "Item_Id": 181085,
    "Item_Type": "BUBBLER/DRINKING FOUNTAIN",
    "Item_Description": "BOWL FOUNTAIN TW001",
    "Latitude": -27.4686661,
    "Longitude": 153.0524812,
    "Easting": 505185,
    "Northing": 6961653
  },
  {
    "Ward": "CENTRAL",
    "Suburb": "NEW FARM",
    "Property_Code": "D0095",
    "Park_Name": "NEW FARM PARK",
    "Node_Id": 22843,
    "Node_Name": "FERRY PICNIC AREA",
    "Item_Id": 181073,
    "Item_Type": "BUBBLER/DRINKING FOUNTAIN",
    "Item_Description": "BUBBLER/DRINKING FOUNTAIN",
    "Latitude": -27.4712615,
    "Longitude": 153.05185,
    "Easting": 505123,
    "Northing": 6961365
  },
  {
    "Ward": "CENTRAL",
    "Suburb": "NEW FARM",
    "Property_Code": "D0095",
    "Park_Name": "NEW FARM PARK",
    "Node_Id": 22843,
    "Node_Name": "FERRY PICNIC AREA",
    "Item_Id": 178949,
    "Item_Type": "BUBBLER/DRINKING FOUNTAIN",
    "Item_Description": "DRINKING FOUNTAIN 3 TIERED",
    "Latitude": -27.4711801,
    "Longitude": 153.0517685,
    "Easting": 505115,
    "Northing": 6961374
  },
  {
    "Ward": "CENTRAL",
    "Suburb": "NEW FARM",
    "Property_Code": "D0095",
    "Park_Name": "NEW FARM PARK",
    "Node_Id": 22843,
    "Node_Name": "FERRY PICNIC AREA",
    "Item_Id": 181072,
    "Item_Type": "BUBBLER/DRINKING FOUNTAIN",
    "Item_Description": "BUBBLER/DRINKING FOUNTAIN",
    "Latitude": -27.4710092,
    "Longitude": 153.0519255,
    "Easting": 505130,
    "Northing": 6961393
  },
  {
    "Ward": "CENTRAL",
    "Suburb": "NEW FARM",
    "Property_Code": "D0095",
    "Park_Name": "NEW FARM PARK",
    "Node_Id": 22849,
    "Node_Name": "BOOKING SITE NO 3 FERRY VIEW",
    "Item_Id": 144938,
    "Item_Type": "BUBBLER/DRINKING FOUNTAIN",
    "Item_Description": "DRINKING FOUNTAIN WITH SLAB & DRAIN",
    "Latitude": -27.471153,
    "Longitude": 153.0522817,
    "Easting": 505165,
    "Northing": 6961377
  },
  {
    "Ward": "CENTRAL",
    "Suburb": "NEW FARM",
    "Property_Code": "D0095",
    "Park_Name": "NEW FARM PARK",
    "Node_Id": 23125,
    "Node_Name": "NEW FARM PK RING RD & CAR PARKING",
    "Item_Id": 144728,
    "Item_Type": "BUBBLER/DRINKING FOUNTAIN",
    "Item_Description": "BUBBLER",
    "Latitude": -27.4689739,
    "Longitude": 153.0497127,
    "Easting": 504912,
    "Northing": 6961619
  },
  {
    "Ward": "CENTRAL",
    "Suburb": "NEW FARM",
    "Property_Code": "D0095",
    "Park_Name": "NEW FARM PARK",
    "Node_Id": 23125,
    "Node_Name": "NEW FARM PK RING RD & CAR PARKING",
    "Item_Id": 31575,
    "Item_Type": "TAP COMBINATION",
    "Item_Description": "BUBBLER & 2 TAPS",
    "Latitude": -27.4688315,
    "Longitude": 153.0499043,
    "Easting": 504931,
    "Northing": 6961635
  },
  {
    "Ward": "CENTRAL",
    "Suburb": "NEW FARM",
    "Property_Code": "D0095",
    "Park_Name": "NEW FARM PARK",
    "Node_Id": 23125,
    "Node_Name": "NEW FARM PK RING RD & CAR PARKING",
    "Item_Id": 144924,
    "Item_Type": "TAP COMBINATION",
    "Item_Description": "BUBBLER & 2 TAPS",
    "Latitude": -27.4697885,
    "Longitude": 153.0506075,
    "Easting": 505000,
    "Northing": 6961529
  },
  {
    "Ward": "CENTRAL",
    "Suburb": "NEW FARM",
    "Property_Code": "D0095",
    "Park_Name": "NEW FARM PARK",
    "Node_Id": 23125,
    "Node_Name": "NEW FARM PK RING RD & CAR PARKING",
    "Item_Id": 70143,
    "Item_Type": "TAP COMBINATION",
    "Item_Description": "BUBBLER & 2 TAPS",
    "Latitude": -27.4702189,
    "Longitude": 153.0509138,
    "Easting": 505030,
    "Northing": 6961481
  },
  {
    "Ward": "CENTRAL",
    "Suburb": "NEW FARM",
    "Property_Code": "D0095",
    "Park_Name": "NEW FARM PARK",
    "Node_Id": 23125,
    "Node_Name": "NEW FARM PK RING RD & CAR PARKING",
    "Item_Id": 145529,
    "Item_Type": "TAP COMBINATION",
    "Item_Description": "BUBBLER & 2 TAPS",
    "Latitude": -27.4687991,
    "Longitude": 153.052103,
    "Easting": 505148,
    "Northing": 6961638
  },
  {
    "Ward": "CENTRAL",
    "Suburb": "NEW FARM",
    "Property_Code": "D0095",
    "Park_Name": "NEW FARM PARK",
    "Node_Id": 23125,
    "Node_Name": "NEW FARM PK RING RD & CAR PARKING",
    "Item_Id": 69720,
    "Item_Type": "TAP COMBINATION",
    "Item_Description": "BUBBLER & TAP",
    "Latitude": -27.4688154,
    "Longitude": 153.0521063,
    "Easting": 505148,
    "Northing": 6961636
  },
  {
    "Ward": "CENTRAL",
    "Suburb": "NEW FARM",
    "Property_Code": "D0095",
    "Park_Name": "NEW FARM PARK",
    "Node_Id": 23125,
    "Node_Name": "NEW FARM PK RING RD & CAR PARKING",
    "Item_Id": 70141,
    "Item_Type": "TAP COMBINATION",
    "Item_Description": "BUBBLER & TAP",
    "Latitude": -27.4686816,
    "Longitude": 153.0521215,
    "Easting": 505150,
    "Northing": 6961651
  },
  {
    "Ward": "CENTRAL",
    "Suburb": "NEW FARM",
    "Property_Code": "D0095",
    "Park_Name": "NEW FARM PARK",
    "Node_Id": 23125,
    "Node_Name": "NEW FARM PK RING RD & CAR PARKING",
    "Item_Id": 70182,
    "Item_Type": "TAP COMBINATION",
    "Item_Description": "BUBBLER & TAP",
    "Latitude": -27.4706135,
    "Longitude": 153.0522797,
    "Easting": 505165,
    "Northing": 6961437
  },
  {
    "Ward": "CENTRAL",
    "Suburb": "NEW FARM",
    "Property_Code": "D0095",
    "Park_Name": "NEW FARM PARK",
    "Node_Id": 23125,
    "Node_Name": "NEW FARM PK RING RD & CAR PARKING",
    "Item_Id": 145348,
    "Item_Type": "TAP COMBINATION",
    "Item_Description": "BUBBLER & 2 TAPS",
    "Latitude": -27.469999,
    "Longitude": 153.0530192,
    "Easting": 505238,
    "Northing": 6961505
  },
  {
    "Ward": "CENTRAL",
    "Suburb": "NEW FARM",
    "Property_Code": "D0095",
    "Park_Name": "NEW FARM PARK",
    "Node_Id": 23132,
    "Node_Name": "SITE OF FORMER KIOSK & GARDENS",
    "Item_Id": 144755,
    "Item_Type": "TAP COMBINATION",
    "Item_Description": "BUBBLER & 2 TAPS",
    "Latitude": -27.4684129,
    "Longitude": 153.0518048,
    "Easting": 505118,
    "Northing": 6961681
  },
  {
    "Ward": "CENTRAL",
    "Suburb": "NEW FARM",
    "Property_Code": "D0095",
    "Park_Name": "NEW FARM PARK",
    "Node_Id": 23133,
    "Node_Name": "POWERHOUSE PEDESTRIAN & BIKE ACCESS",
    "Item_Id": 31020,
    "Item_Type": "BUBBLER/DRINKING FOUNTAIN",
    "Item_Description": "DRINKING FOUNTAIN",
    "Latitude": -27.4693458,
    "Longitude": 153.0533043,
    "Easting": 505266,
    "Northing": 6961578
  },
  {
    "Ward": "CENTRAL",
    "Suburb": "NEW FARM",
    "Property_Code": "D0095",
    "Park_Name": "NEW FARM PARK",
    "Node_Id": 32384,
    "Node_Name": "SOFT FALL",
    "Item_Id": 70184,
    "Item_Type": "TAP COMBINATION",
    "Item_Description": "BUBBLER & 2 TAPS",
    "Latitude": -27.4684309,
    "Longitude": 153.0486456,
    "Easting": 504806,
    "Northing": 6961679
  },
  {
    "Ward": "CENTRAL",
    "Suburb": "NEW FARM",
    "Property_Code": "D1535",
    "Park_Name": "POWERHOUSE PARK",
    "Node_Id": 12399,
    "Node_Name": "BALANCE OF PARK",
    "Item_Id": 123507,
    "Item_Type": "TAP COMBINATION",
    "Item_Description": "BUBBLER & 2 TAPS",
    "Latitude": -27.4677775,
    "Longitude": 153.0541988,
    "Easting": 505355,
    "Northing": 6961751
  },
  {
    "Ward": "CENTRAL",
    "Suburb": "NEW FARM",
    "Property_Code": "D1948",
    "Park_Name": "MERTHYR ROAD PARK",
    "Node_Id": 12369,
    "Node_Name": "BALANCE OF PARK",
    "Item_Id": 123464,
    "Item_Type": "BUBBLER/DRINKING FOUNTAIN",
    "Item_Description": "BUBBLER",
    "Latitude": -27.465329,
    "Longitude": 153.0525275,
    "Easting": 505190,
    "Northing": 6962022
  },
  {
    "Ward": "CENTRAL",
    "Suburb": "NEW FARM",
    "Property_Code": "D1974",
    "Park_Name": "MERTHYR ROAD PARK (NO.2)",
    "Node_Id": 12341,
    "Node_Name": "BALANCE OF PARK",
    "Item_Id": 118374,
    "Item_Type": "BUBBLER/DRINKING FOUNTAIN",
    "Item_Description": "BUBBLER",
    "Latitude": -27.470871,
    "Longitude": 153.041043,
    "Easting": 504055,
    "Northing": 6961409
  },
  {
    "Ward": "ENOGGERA",
    "Suburb": "NEWMARKET",
    "Property_Code": "D0487",
    "Park_Name": "MCCOOK PARK",
    "Node_Id": 15267,
    "Node_Name": "MCCOOK PK SPORTING FACILITY",
    "Item_Id": 18138,
    "Item_Type": "TAP COMBINATION",
    "Item_Description": "BUBBLER & TAP",
    "Latitude": -27.4372206,
    "Longitude": 153.0135062,
    "Easting": 501335,
    "Northing": 6965137
  },
  {
    "Ward": "ENOGGERA",
    "Suburb": "WILSTON",
    "Property_Code": "D0493",
    "Park_Name": "WILSTON RECREATION RESERVE",
    "Node_Id": 15222,
    "Node_Name": "BRIS CITY JR SOCCER CLUB FACILITY",
    "Item_Id": 23299,
    "Item_Type": "TAP COMBINATION",
    "Item_Description": "BUBBLER & TAP",
    "Latitude": -27.4407738,
    "Longitude": 153.0130275,
    "Easting": 501287,
    "Northing": 6964743
  },
  {
    "Ward": "ENOGGERA",
    "Suburb": "WILSTON",
    "Property_Code": "D0493",
    "Park_Name": "WILSTON RECREATION RESERVE",
    "Node_Id": 15223,
    "Node_Name": "WILSTON REC RES PLAYGROUND",
    "Item_Id": 90511,
    "Item_Type": "TAP COMBINATION",
    "Item_Description": "BUBBLER & 2 TAPS",
    "Latitude": -27.4408037,
    "Longitude": 153.0119805,
    "Easting": 501184,
    "Northing": 6964740
  },
  {
    "Ward": "CENTRAL",
    "Suburb": "TENERIFFE",
    "Property_Code": "D0078",
    "Park_Name": "TENERIFFE PARK",
    "Node_Id": 12594,
    "Node_Name": "TENERIFFE PK PICNIC AREA",
    "Item_Id": 47700,
    "Item_Type": "TAP COMBINATION",
    "Item_Description": "BUBBLER, TAP & DOG BOWL",
    "Latitude": -27.4582988,
    "Longitude": 153.0463902,
    "Easting": 504584,
    "Northing": 6962801
  },
  {
    "Ward": "CENTRAL",
    "Suburb": "TENERIFFE",
    "Property_Code": "D0078",
    "Park_Name": "TENERIFFE PARK",
    "Node_Id": 24708,
    "Node_Name": "TENERIFFE PK BUSHLAND GP RESTORATION SITE",
    "Item_Id": 34569,
    "Item_Type": "TAP COMBINATION",
    "Item_Description": "BUBBLER & TAP",
    "Latitude": -27.45713,
    "Longitude": 153.0464151,
    "Easting": 504586,
    "Northing": 6962931
  },
  {
    "Ward": "CENTRAL",
    "Suburb": "SPRING HILL",
    "Property_Code": "D0071",
    "Park_Name": "WICKHAM PARK",
    "Node_Id": 12631,
    "Node_Name": "WICKHAM PK ESCARPMENT",
    "Item_Id": 146012,
    "Item_Type": "TAP COMBINATION",
    "Item_Description": "BUBBLER & 2 TAPS",
    "Latitude": -27.4649008,
    "Longitude": 153.021124,
    "Easting": 502087,
    "Northing": 6962071
  },
  {
    "Ward": "CENTRAL",
    "Suburb": "SPRING HILL",
    "Property_Code": "D0071",
    "Park_Name": "WICKHAM PARK",
    "Node_Id": 12631,
    "Node_Name": "WICKHAM PK ESCARPMENT",
    "Item_Id": 146019,
    "Item_Type": "TAP COMBINATION",
    "Item_Description": "BUBBLER & 2 TAPS",
    "Latitude": -27.4651539,
    "Longitude": 153.0214966,
    "Easting": 502124,
    "Northing": 6962043
  },
  {
    "Ward": "CENTRAL",
    "Suburb": "SPRING HILL",
    "Property_Code": "D0071",
    "Park_Name": "WICKHAM PARK",
    "Node_Id": 12631,
    "Node_Name": "WICKHAM PK ESCARPMENT",
    "Item_Id": 146025,
    "Item_Type": "TAP COMBINATION",
    "Item_Description": "BUBBLER & 2 TAPS",
    "Latitude": -27.4653507,
    "Longitude": 153.0219093,
    "Easting": 502165,
    "Northing": 6962021
  },
  {
    "Ward": "CENTRAL",
    "Suburb": "SPRING HILL",
    "Property_Code": "D0081",
    "Park_Name": "TERRACE STREET PARK",
    "Node_Id": 12576,
    "Node_Name": "SEDGEBROOK ST PLAYGROUND",
    "Item_Id": 44385,
    "Item_Type": "BUBBLER/DRINKING FOUNTAIN",
    "Item_Description": "BUBBLER",
    "Latitude": -27.463879,
    "Longitude": 153.0228816,
    "Easting": 502261,
    "Northing": 6962184
  },
  {
    "Ward": "CENTRAL",
    "Suburb": "FORTITUDE VALLEY",
    "Property_Code": "D0076",
    "Park_Name": "CENTENARY PLACE PARK",
    "Node_Id": 12601,
    "Node_Name": "SOUTH PAC",
    "Item_Id": 19345,
    "Item_Type": "BUBBLER/DRINKING FOUNTAIN",
    "Item_Description": "DRINKING FOUNTAIN",
    "Latitude": -27.4608484,
    "Longitude": 153.0319349,
    "Easting": 503155,
    "Northing": 6962519
  },
  {
    "Ward": "ENOGGERA",
    "Suburb": "WILSTON",
    "Property_Code": "D0486",
    "Park_Name": "LANGLEY AVENUE PARK",
    "Node_Id": 15277,
    "Node_Name": "BALANCE OF PARK",
    "Item_Id": 45962,
    "Item_Type": "TAP COMBINATION",
    "Item_Description": "BUBBLER & 2 TAPS",
    "Latitude": -27.4405903,
    "Longitude": 153.0161801,
    "Easting": 501599,
    "Northing": 6964764
  },
  {
    "Ward": "ENOGGERA",
    "Suburb": "WILSTON",
    "Property_Code": "D0486",
    "Park_Name": "LANGLEY AVENUE PARK",
    "Node_Id": 31821,
    "Node_Name": "LANGLEY AVE SHARED PATHWAY",
    "Item_Id": 45963,
    "Item_Type": "TAP COMBINATION",
    "Item_Description": "BUBBLER & 2 TAPS",
    "Latitude": -27.4411919,
    "Longitude": 153.0195384,
    "Easting": 501931,
    "Northing": 6964697
  },
  {
    "Ward": "ENOGGERA",
    "Suburb": "WINDSOR",
    "Property_Code": "D0492",
    "Park_Name": "DOWNEY PARK",
    "Node_Id": 15232,
    "Node_Name": "BRISBANE WOMENS HOCKEY CENTRE",
    "Item_Id": 177059,
    "Item_Type": "TAP COMBINATION",
    "Item_Description": "BUBBLER & TAP",
    "Latitude": -27.4405461,
    "Longitude": 153.022326,
    "Easting": 502206,
    "Northing": 6964768
  },
  {
    "Ward": "ENOGGERA",
    "Suburb": "WINDSOR",
    "Property_Code": "D0492",
    "Park_Name": "DOWNEY PARK",
    "Node_Id": 15232,
    "Node_Name": "BRISBANE WOMENS HOCKEY CENTRE",
    "Item_Id": 177058,
    "Item_Type": "TAP COMBINATION",
    "Item_Description": "BUBBLER & TAP",
    "Latitude": -27.4398612,
    "Longitude": 153.022476,
    "Easting": 502221,
    "Northing": 6964844
  },
  {
    "Ward": "ENOGGERA",
    "Suburb": "WINDSOR",
    "Property_Code": "D0492",
    "Park_Name": "DOWNEY PARK",
    "Node_Id": 15232,
    "Node_Name": "BRISBANE WOMENS HOCKEY CENTRE",
    "Item_Id": 177052,
    "Item_Type": "TAP COMBINATION",
    "Item_Description": "BUBBLER & TAP",
    "Latitude": -27.4393274,
    "Longitude": 153.0226051,
    "Easting": 502234,
    "Northing": 6964903
  },
  {
    "Ward": "ENOGGERA",
    "Suburb": "WINDSOR",
    "Property_Code": "D0492",
    "Park_Name": "DOWNEY PARK",
    "Node_Id": 15232,
    "Node_Name": "BRISBANE WOMENS HOCKEY CENTRE",
    "Item_Id": 177069,
    "Item_Type": "TAP COMBINATION",
    "Item_Description": "BUBBLER & TAP",
    "Latitude": -27.4397006,
    "Longitude": 153.0236542,
    "Easting": 502338,
    "Northing": 6964862
  },
  {
    "Ward": "ENOGGERA",
    "Suburb": "WINDSOR",
    "Property_Code": "D0492",
    "Park_Name": "DOWNEY PARK",
    "Node_Id": 15232,
    "Node_Name": "BRISBANE WOMENS HOCKEY CENTRE",
    "Item_Id": 176993,
    "Item_Type": "TAP COMBINATION",
    "Item_Description": "BUBBLER & TAP",
    "Latitude": -27.4398579,
    "Longitude": 153.0252073,
    "Easting": 502491,
    "Northing": 6964845
  },
  {
    "Ward": "ENOGGERA",
    "Suburb": "WINDSOR",
    "Property_Code": "D0492",
    "Park_Name": "DOWNEY PARK",
    "Node_Id": 26904,
    "Node_Name": "GREEN TCE PICNIC AREA",
    "Item_Id": 23261,
    "Item_Type": "TAP COMBINATION",
    "Item_Description": "BUBBLER & TAP",
    "Latitude": -27.4415202,
    "Longitude": 153.0251706,
    "Easting": 502487,
    "Northing": 6964661
  },
  {
    "Ward": "ENOGGERA",
    "Suburb": "WINDSOR",
    "Property_Code": "D0492",
    "Park_Name": "DOWNEY PARK",
    "Node_Id": 15242,
    "Node_Name": "DOWNEY PK SHARED PATHWAY",
    "Item_Id": 177128,
    "Item_Type": "TAP COMBINATION",
    "Item_Description": "BUBBLER & TAP",
    "Latitude": -27.4418929,
    "Longitude": 153.0227259,
    "Easting": 502246,
    "Northing": 6964619
  },
  {
    "Ward": "ENOGGERA",
    "Suburb": "WINDSOR",
    "Property_Code": "D0492",
    "Park_Name": "DOWNEY PARK",
    "Node_Id": 15232,
    "Node_Name": "BRISBANE WOMENS HOCKEY CENTRE",
    "Item_Id": 71018,
    "Item_Type": "BUBBLER/DRINKING FOUNTAIN",
    "Item_Description": "BUBBLER WITH DOG/BIRD DRINKING TROUGH",
    "Latitude": -27.4408779,
    "Longitude": 153.024904,
    "Easting": 502461,
    "Northing": 6964732
  },
  {
    "Ward": "ENOGGERA",
    "Suburb": "WINDSOR",
    "Property_Code": "D0497",
    "Park_Name": "HINKLER PARK",
    "Node_Id": 14976,
    "Node_Name": "HINKLER PK PICNIC AREA",
    "Item_Id": 188676,
    "Item_Type": "TAP COMBINATION",
    "Item_Description": "BUBBLER & 2 TAPS",
    "Latitude": -27.4318954,
    "Longitude": 153.0238507,
    "Easting": 502357,
    "Northing": 6965727
  },
  {
    "Ward": "ENOGGERA",
    "Suburb": "WINDSOR",
    "Property_Code": "D0506",
    "Park_Name": "WINDSOR MEMORIAL PARK",
    "Node_Id": 15143,
    "Node_Name": "BALANCE OF PARK",
    "Item_Id": 9676,
    "Item_Type": "TAP COMBINATION",
    "Item_Description": "BUBBLER & TAP",
    "Latitude": -27.4307628,
    "Longitude": 153.0322577,
    "Easting": 503188,
    "Northing": 6965852
  },
  {
    "Ward": "ENOGGERA",
    "Suburb": "WINDSOR",
    "Property_Code": "D1137",
    "Park_Name": "NORTHEY STREET PARK",
    "Node_Id": 15104,
    "Node_Name": "DOWNEY ST DOG OFF LEASH AREA",
    "Item_Id": 168056,
    "Item_Type": "TAP COMBINATION",
    "Item_Description": "BUBBLER 2 TAPS & DOG BOWL",
    "Latitude": -27.4434585,
    "Longitude": 153.0266995,
    "Easting": 502639,
    "Northing": 6964446
  },
  {
    "Ward": "COORPAROO",
    "Suburb": "COORPAROO",
    "Property_Code": "D0109",
    "Park_Name": "WEMBLEY PARK",
    "Node_Id": 14550,
    "Node_Name": "JACKSON ST DOG OFF LEASH AREA",
    "Item_Id": 29905,
    "Item_Type": "TAP COMBINATION",
    "Item_Description": "BUBBLER & TAP",
    "Latitude": -27.4893581,
    "Longitude": 153.063505,
    "Easting": 506273,
    "Northing": 6959360
  },
  {
    "Ward": "COORPAROO",
    "Suburb": "COORPAROO",
    "Property_Code": "D0109",
    "Park_Name": "WEMBLEY PARK",
    "Node_Id": 14552,
    "Node_Name": "JACKSON ST PLAYGROUND",
    "Item_Id": 25443,
    "Item_Type": "TAP COMBINATION",
    "Item_Description": "BUBBLER & TAP",
    "Latitude": -27.4889126,
    "Longitude": 153.0632492,
    "Easting": 506248,
    "Northing": 6959410
  },
  {
    "Ward": "COORPAROO",
    "Suburb": "COORPAROO",
    "Property_Code": "D0109",
    "Park_Name": "WEMBLEY PARK",
    "Node_Id": 14554,
    "Node_Name": "WEMBLEY PK METROPOLITAN DISTRICTS NETBALL FACILITY",
    "Item_Id": 39494,
    "Item_Type": "BUBBLER/DRINKING FOUNTAIN",
    "Item_Description": "BUBBLER",
    "Latitude": -27.4890146,
    "Longitude": 153.0607457,
    "Easting": 506001,
    "Northing": 6959399
  },
  {
    "Ward": "COORPAROO",
    "Suburb": "COORPAROO",
    "Property_Code": "D0109",
    "Park_Name": "WEMBLEY PARK",
    "Node_Id": 14554,
    "Node_Name": "WEMBLEY PK METROPOLITAN DISTRICTS NETBALL FACILITY",
    "Item_Id": 102546,
    "Item_Type": "TAP COMBINATION",
    "Item_Description": "BUBBLER & TAP",
    "Latitude": -27.4894236,
    "Longitude": 153.0607955,
    "Easting": 506006,
    "Northing": 6959353
  },
  {
    "Ward": "COORPAROO",
    "Suburb": "COORPAROO",
    "Property_Code": "D0109",
    "Park_Name": "WEMBLEY PARK",
    "Node_Id": 14554,
    "Node_Name": "WEMBLEY PK METROPOLITAN DISTRICTS NETBALL FACILITY",
    "Item_Id": 39495,
    "Item_Type": "TAP COMBINATION",
    "Item_Description": "BUBBLER & TAP",
    "Latitude": -27.4891631,
    "Longitude": 153.0613335,
    "Easting": 506059,
    "Northing": 6959382
  },
  {
    "Ward": "COORPAROO",
    "Suburb": "COORPAROO",
    "Property_Code": "D0109",
    "Park_Name": "WEMBLEY PARK",
    "Node_Id": 14555,
    "Node_Name": "BALANCE OF PARK",
    "Item_Id": 16817,
    "Item_Type": "BUBBLER/DRINKING FOUNTAIN",
    "Item_Description": "DRINKING FOUNTAIN",
    "Latitude": -27.4881778,
    "Longitude": 153.0598654,
    "Easting": 505914,
    "Northing": 6959491
  },
  {
    "Ward": "COORPAROO",
    "Suburb": "COORPAROO",
    "Property_Code": "D0109",
    "Park_Name": "WEMBLEY PARK",
    "Node_Id": 24653,
    "Node_Name": "WEMBLEY PK SHARED PATHWAY NETWORK",
    "Item_Id": 43743,
    "Item_Type": "TAP COMBINATION",
    "Item_Description": "BUBBLER & TAP",
    "Latitude": -27.489172,
    "Longitude": 153.0584349,
    "Easting": 505772,
    "Northing": 6959381
  },
  {
    "Ward": "COORPAROO",
    "Suburb": "COORPAROO",
    "Property_Code": "D0117",
    "Park_Name": "LANGLANDS PARK",
    "Node_Id": 23287,
    "Node_Name": "NETBALL COURT - ASPHALT",
    "Item_Id": 102090,
    "Item_Type": "BUBBLER/DRINKING FOUNTAIN",
    "Item_Description": "BUBBLER",
    "Latitude": -27.495473,
    "Longitude": 153.0485419,
    "Easting": 504795,
    "Northing": 6958684
  },
  {
    "Ward": "COORPAROO",
    "Suburb": "COORPAROO",
    "Property_Code": "D0117",
    "Park_Name": "LANGLANDS PARK",
    "Node_Id": 23287,
    "Node_Name": "NETBALL COURT - ASPHALT",
    "Item_Id": 39501,
    "Item_Type": "BUBBLER/DRINKING FOUNTAIN",
    "Item_Description": "BUBBLER",
    "Latitude": -27.4954913,
    "Longitude": 153.0485437,
    "Easting": 504795,
    "Northing": 6958682
  },
  {
    "Ward": "THE GABBA",
    "Suburb": "DUTTON PARK",
    "Property_Code": "D0355",
    "Park_Name": "DUTTON PARK",
    "Node_Id": 14175,
    "Node_Name": "GLADSTONE RD DOG OFF LEASH AREA",
    "Item_Id": 30770,
    "Item_Type": "TAP COMBINATION",
    "Item_Description": "BUBBLER, TAP & DOG BOWL",
    "Latitude": -27.4968505,
    "Longitude": 153.0259564,
    "Easting": 502564,
    "Northing": 6958532
  },
  {
    "Ward": "THE GABBA",
    "Suburb": "DUTTON PARK",
    "Property_Code": "D0355",
    "Park_Name": "DUTTON PARK",
    "Node_Id": 14177,
    "Node_Name": "HARMONY GDNS PLAYGROUND",
    "Item_Id": 180785,
    "Item_Type": "BUBBLER/DRINKING FOUNTAIN",
    "Item_Description": "BUBBLER/DRINKING FOUNTAIN",
    "Latitude": -27.4960241,
    "Longitude": 153.0248891,
    "Easting": 502458,
    "Northing": 6958623
  },
  {
    "Ward": "THE GABBA",
    "Suburb": "DUTTON PARK",
    "Property_Code": "D0355",
    "Park_Name": "DUTTON PARK",
    "Node_Id": 14178,
    "Node_Name": "BALANCE OF PARK",
    "Item_Id": 7417,
    "Item_Type": "BUBBLER/DRINKING FOUNTAIN",
    "Item_Description": "BUBBLER - DISABLED ACCESS",
    "Latitude": -27.4968824,
    "Longitude": 153.0254374,
    "Easting": 502513,
    "Northing": 6958528
  },
  {
    "Ward": "THE GABBA",
    "Suburb": "DUTTON PARK",
    "Property_Code": "D0355",
    "Park_Name": "DUTTON PARK",
    "Node_Id": 14177,
    "Node_Name": "HARMONY GDNS PLAYGROUND",
    "Item_Id": 29949,
    "Item_Type": "TAP COMBINATION",
    "Item_Description": "BUBBLER & TAP",
    "Latitude": -27.4959844,
    "Longitude": 153.0248336,
    "Easting": 502453,
    "Northing": 6958628
  },
  {
    "Ward": "THE GABBA",
    "Suburb": "DUTTON PARK",
    "Property_Code": "D0355",
    "Park_Name": "DUTTON PARK",
    "Node_Id": 14183,
    "Node_Name": "GLADSTONE RD HALF COURT & VANTAGE POINT",
    "Item_Id": 36932,
    "Item_Type": "TAP COMBINATION",
    "Item_Description": "BUBBLER & TAP",
    "Latitude": -27.4964623,
    "Longitude": 153.0255758,
    "Easting": 502526,
    "Northing": 6958575
  },
  {
    "Ward": "THE GABBA",
    "Suburb": "DUTTON PARK",
    "Property_Code": "D0356",
    "Park_Name": "GAIR PARK",
    "Node_Id": 14169,
    "Node_Name": "GAIR PK MEETING SPACE",
    "Item_Id": 85917,
    "Item_Type": "TAP COMBINATION",
    "Item_Description": "BUBBLER & 2 TAPS",
    "Latitude": -27.4964718,
    "Longitude": 153.0274304,
    "Easting": 502709,
    "Northing": 6958574
  },
  {
    "Ward": "THE GABBA",
    "Suburb": "EAST BRISBANE",
    "Property_Code": "D0360",
    "Park_Name": "WOOLLOONGABBA ROTARY PARK",
    "Node_Id": 14462,
    "Node_Name": "WOOLLOONGABBA ROTARY PK DOG OFF LEASH AREA",
    "Item_Id": 30142,
    "Item_Type": "TAP COMBINATION",
    "Item_Description": "BUBBLER & TAP",
    "Latitude": -27.490465,
    "Longitude": 153.0428186,
    "Easting": 504230,
    "Northing": 6959239
  },
  {
    "Ward": "THE GABBA",
    "Suburb": "EAST BRISBANE",
    "Property_Code": "D0365",
    "Park_Name": "WILLIAMINA PARK",
    "Node_Id": 14434,
    "Node_Name": "CLUB & SPORTING FIELDS PARKING",
    "Item_Id": 14075,
    "Item_Type": "TAP COMBINATION",
    "Item_Description": "BUBBLER & TAP",
    "Latitude": -27.4834536,
    "Longitude": 153.0454828,
    "Easting": 504493,
    "Northing": 6960015
  },
  {
    "Ward": "THE GABBA",
    "Suburb": "EAST BRISBANE",
    "Property_Code": "D0366",
    "Park_Name": "MOWBRAY PARK",
    "Node_Id": 14137,
    "Node_Name": "MOWBRAY PK SHARED PATHWAY & RIVERWALK",
    "Item_Id": 14135,
    "Item_Type": "BUBBLER/DRINKING FOUNTAIN",
    "Item_Description": "FOUNTAIN - DISABLED ACCESS",
    "Latitude": -27.4776746,
    "Longitude": 153.042878,
    "Easting": 504236,
    "Northing": 6960655
  },
  {
    "Ward": "THE GABBA",
    "Suburb": "EAST BRISBANE",
    "Property_Code": "D0366",
    "Park_Name": "MOWBRAY PARK",
    "Node_Id": 14137,
    "Node_Name": "MOWBRAY PK SHARED PATHWAY & RIVERWALK",
    "Item_Id": 39595,
    "Item_Type": "TAP COMBINATION",
    "Item_Description": "BUBBLER & 2 TAPS",
    "Latitude": -27.4782925,
    "Longitude": 153.0444785,
    "Easting": 504394,
    "Northing": 6960587
  },
  {
    "Ward": "THE GABBA",
    "Suburb": "EAST BRISBANE",
    "Property_Code": "D0366",
    "Park_Name": "MOWBRAY PARK",
    "Node_Id": 14423,
    "Node_Name": "BALANCE OF PARK",
    "Item_Id": 169697,
    "Item_Type": "TAP COMBINATION",
    "Item_Description": "BUBBLER & 2 TAPS",
    "Latitude": -27.478892,
    "Longitude": 153.0445485,
    "Easting": 504401,
    "Northing": 6960520
  },
  {
    "Ward": "THE GABBA",
    "Suburb": "EAST BRISBANE",
    "Property_Code": "D0367",
    "Park_Name": "REAL PARK",
    "Node_Id": 14412,
    "Node_Name": "REAL PK PLAYGROUND",
    "Item_Id": 30224,
    "Item_Type": "TAP COMBINATION",
    "Item_Description": "BUBBLER & TAP",
    "Latitude": -27.4812637,
    "Longitude": 153.0486867,
    "Easting": 504810,
    "Northing": 6960258
  },
  {
    "Ward": "THE GABBA",
    "Suburb": "EAST BRISBANE",
    "Property_Code": "D0367",
    "Park_Name": "REAL PARK",
    "Node_Id": 14414,
    "Node_Name": "REAL PK DOG OFF LEASH AREA",
    "Item_Id": 30731,
    "Item_Type": "TAP COMBINATION",
    "Item_Description": "BUBBLER 2 TAPS & DOG BOWL",
    "Latitude": -27.4803624,
    "Longitude": 153.0490239,
    "Easting": 504843,
    "Northing": 6960357
  },
  {
    "Ward": "COORPAROO",
    "Suburb": "EAST BRISBANE",
    "Property_Code": "D1519",
    "Park_Name": "MOORHEN FLATS",
    "Node_Id": 31087,
    "Node_Name": "NORMAN CREEK FREECS REHABILITATION SITE",
    "Item_Id": 188581,
    "Item_Type": "TAP COMBINATION",
    "Item_Description": "BUBBLER & TAP",
    "Latitude": -27.4916132,
    "Longitude": 153.0464612,
    "Easting": 504589,
    "Northing": 6959111
  },
  {
    "Ward": "COORPAROO",
    "Suburb": "EAST BRISBANE",
    "Property_Code": "D1519",
    "Park_Name": "MOORHEN FLATS",
    "Node_Id": 31087,
    "Node_Name": "NORMAN CREEK FREECS REHABILITATION SITE",
    "Item_Id": 188589,
    "Item_Type": "TAP COMBINATION",
    "Item_Description": "BUBBLER & TAP",
    "Latitude": -27.491818,
    "Longitude": 153.0470094,
    "Easting": 504644,
    "Northing": 6959089
  },
  {
    "Ward": "COORPAROO",
    "Suburb": "EAST BRISBANE",
    "Property_Code": "D1519",
    "Park_Name": "MOORHEN FLATS",
    "Node_Id": 31087,
    "Node_Name": "NORMAN CREEK FREECS REHABILITATION SITE",
    "Item_Id": 188585,
    "Item_Type": "TAP COMBINATION",
    "Item_Description": "BUBBLER & TAP",
    "Latitude": -27.4916287,
    "Longitude": 153.0477883,
    "Easting": 504721,
    "Northing": 6959110
  },
  {
    "Ward": "THE GABBA",
    "Suburb": "HIGHGATE HILL",
    "Property_Code": "D0345",
    "Park_Name": "LYONS PLAYGROUND PARK",
    "Node_Id": 14025,
    "Node_Name": "LYONS PLAYGROUND &  HALF COURT",
    "Item_Id": 36933,
    "Item_Type": "TAP COMBINATION",
    "Item_Description": "BUBBLER & 2 TAPS",
    "Latitude": -27.489145,
    "Longitude": 153.0124421,
    "Easting": 501229,
    "Northing": 6959385
  },
  {
    "Ward": "THE GABBA",
    "Suburb": "HIGHGATE HILL",
    "Property_Code": "D0354",
    "Park_Name": "HIGHGATE HILL PARK",
    "Node_Id": 14187,
    "Node_Name": "BALANCE OF PARK",
    "Item_Id": 7327,
    "Item_Type": "BUBBLER/DRINKING FOUNTAIN",
    "Item_Description": "SUN DIAL",
    "Latitude": -27.4869519,
    "Longitude": 153.0165779,
    "Easting": 501638,
    "Northing": 6959628
  },
  {
    "Ward": "THE GABBA",
    "Suburb": "HIGHGATE HILL",
    "Property_Code": "D2103",
    "Park_Name": "BRYDON STREET PARK",
    "Node_Id": 28025,
    "Node_Name": "BRYDON ST PK FITNESS STATION",
    "Item_Id": 79679,
    "Item_Type": "TAP COMBINATION",
    "Item_Description": "BUBBLER & 2 TAPS",
    "Latitude": -27.4885901,
    "Longitude": 153.0161649,
    "Easting": 501597,
    "Northing": 6959447
  },
  {
    "Ward": "THE GABBA",
    "Suburb": "KANGAROO POINT",
    "Property_Code": "D0075",
    "Park_Name": "CAPTAIN BURKE PARK",
    "Node_Id": 24123,
    "Node_Name": "HOLMAN ST (EAST) PICNIC AREA",
    "Item_Id": 45970,
    "Item_Type": "TAP COMBINATION",
    "Item_Description": "BUBBLER & TAP",
    "Latitude": -27.4654003,
    "Longitude": 153.0364509,
    "Easting": 503601,
    "Northing": 6962015
  },
  {
    "Ward": "THE GABBA",
    "Suburb": "KANGAROO POINT",
    "Property_Code": "D0075",
    "Park_Name": "CAPTAIN BURKE PARK",
    "Node_Id": 14609,
    "Node_Name": "HOLMAN ST (WEST) PICNIC AREA",
    "Item_Id": 118547,
    "Item_Type": "TAP COMBINATION",
    "Item_Description": "BUBBLER & TAP",
    "Latitude": -27.4654049,
    "Longitude": 153.0345689,
    "Easting": 503416,
    "Northing": 6962015
  },
  {
    "Ward": "THE GABBA",
    "Suburb": "KANGAROO POINT",
    "Property_Code": "D0075",
    "Park_Name": "CAPTAIN BURKE PARK",
    "Node_Id": 23587,
    "Node_Name": "CAPTAIN BURKE PK PATHWAY NETWORK",
    "Item_Id": 19216,
    "Item_Type": "TAP COMBINATION",
    "Item_Description": "BUBBLER & 2 TAPS",
    "Latitude": -27.4654717,
    "Longitude": 153.0353825,
    "Easting": 503496,
    "Northing": 6962007
  },
  {
    "Ward": "THE GABBA",
    "Suburb": "KANGAROO POINT",
    "Property_Code": "D0090",
    "Park_Name": "C.T.WHITE PARK",
    "Node_Id": 14591,
    "Node_Name": "BALANCE OF PARK",
    "Item_Id": 122203,
    "Item_Type": "TAP COMBINATION",
    "Item_Description": "BUBBLER, TAP & DOG BOWL",
    "Latitude": -27.4700146,
    "Longitude": 153.0344248,
    "Easting": 503401,
    "Northing": 6961504
  },
  {
    "Ward": "THE GABBA",
    "Suburb": "KANGAROO POINT",
    "Property_Code": "D0090",
    "Park_Name": "C.T.WHITE PARK",
    "Node_Id": 24285,
    "Node_Name": "THE CLIFFS BOARDWALK (NAVAL STORES TO THORNTON ST)",
    "Item_Id": 122224,
    "Item_Type": "BUBBLER/DRINKING FOUNTAIN",
    "Item_Description": "BUBBLER",
    "Latitude": -27.4711696,
    "Longitude": 153.0343517,
    "Easting": 503394,
    "Northing": 6961376
  },
  {
    "Ward": "THE GABBA",
    "Suburb": "KANGAROO POINT",
    "Property_Code": "D0097",
    "Park_Name": "RAYMOND PARK",
    "Node_Id": 14579,
    "Node_Name": "BAINES ST DOG OFF LEASH AREA",
    "Item_Id": 39464,
    "Item_Type": "TAP COMBINATION",
    "Item_Description": "BUBBLER, TAP & DOG BOWL",
    "Latitude": -27.4813125,
    "Longitude": 153.0394938,
    "Easting": 503902,
    "Northing": 6960253
  },
  {
    "Ward": "THE GABBA",
    "Suburb": "KANGAROO POINT",
    "Property_Code": "D0097",
    "Park_Name": "RAYMOND PARK",
    "Node_Id": 14579,
    "Node_Name": "BAINES ST DOG OFF LEASH AREA",
    "Item_Id": 118504,
    "Item_Type": "TAP COMBINATION",
    "Item_Description": "BUBBLER & 2 TAPS",
    "Latitude": -27.4813057,
    "Longitude": 153.0394964,
    "Easting": 503902,
    "Northing": 6960253
  },
  {
    "Ward": "THE GABBA",
    "Suburb": "KANGAROO POINT",
    "Property_Code": "D0097",
    "Park_Name": "RAYMOND PARK",
    "Node_Id": 14584,
    "Node_Name": "RAWLINS ST PICNIC AREA",
    "Item_Id": 122906,
    "Item_Type": "TAP COMBINATION",
    "Item_Description": "BUBBLER & 2 TAPS",
    "Latitude": -27.4801802,
    "Longitude": 153.0388217,
    "Easting": 503835,
    "Northing": 6960378
  },
  {
    "Ward": "THE GABBA",
    "Suburb": "KANGAROO POINT",
    "Property_Code": "D0680",
    "Park_Name": "KANGAROO POINT CLIFFS PARK",
    "Node_Id": 14351,
    "Node_Name": "THE CLIFFS BOARWALK (CAP COOK BDGE TO MANGROVES)",
    "Item_Id": 118709,
    "Item_Type": "TAP COMBINATION",
    "Item_Description": "BUBBLER & 2 TAPS",
    "Latitude": -27.479412,
    "Longitude": 153.0334936,
    "Easting": 503309,
    "Northing": 6960463
  },
  {
    "Ward": "THE GABBA",
    "Suburb": "KANGAROO POINT",
    "Property_Code": "D0680",
    "Park_Name": "KANGAROO POINT CLIFFS PARK",
    "Node_Id": 14354,
    "Node_Name": "SCOUT PLACE LOOKOUT",
    "Item_Id": 39784,
    "Item_Type": "BUBBLER/DRINKING FOUNTAIN",
    "Item_Description": "BUBBLER",
    "Latitude": -27.4807991,
    "Longitude": 153.0332445,
    "Easting": 503284,
    "Northing": 6960310
  },
  {
    "Ward": "THE GABBA",
    "Suburb": "KANGAROO POINT",
    "Property_Code": "D0680",
    "Park_Name": "KANGAROO POINT CLIFFS PARK",
    "Node_Id": 14358,
    "Node_Name": "LOWER RIVER TERRACE PICNIC AREA",
    "Item_Id": 118752,
    "Item_Type": "BUBBLER/DRINKING FOUNTAIN",
    "Item_Description": "BUBBLER - APPOLLO 400",
    "Latitude": -27.4797708,
    "Longitude": 153.0332503,
    "Easting": 503285,
    "Northing": 6960423
  },
  {
    "Ward": "THE GABBA",
    "Suburb": "KANGAROO POINT",
    "Property_Code": "D0680",
    "Park_Name": "KANGAROO POINT CLIFFS PARK",
    "Node_Id": 29529,
    "Node_Name": "THE CLIFFS WALK (MARITIME MUSEUM TO CAPT COOK BDGE)",
    "Item_Id": 118865,
    "Item_Type": "BUBBLER/DRINKING FOUNTAIN",
    "Item_Description": "BUBBLER",
    "Latitude": -27.4823412,
    "Longitude": 153.0299848,
    "Easting": 502962,
    "Northing": 6960139
  },
  {
    "Ward": "THE GABBA",
    "Suburb": "KANGAROO POINT",
    "Property_Code": "D0680",
    "Park_Name": "KANGAROO POINT CLIFFS PARK",
    "Node_Id": 29599,
    "Node_Name": "THE CLIFFS BOARDWALK (MANGROVES TO NAVAL STORES)",
    "Item_Id": 2756,
    "Item_Type": "BUBBLER/DRINKING FOUNTAIN",
    "Item_Description": "ONE BUBBLER",
    "Latitude": -27.4776507,
    "Longitude": 153.0342341,
    "Easting": 503382,
    "Northing": 6960658
  },
  {
    "Ward": "THE GABBA",
    "Suburb": "KANGAROO POINT",
    "Property_Code": "D0680",
    "Park_Name": "KANGAROO POINT CLIFFS PARK",
    "Node_Id": 29599,
    "Node_Name": "THE CLIFFS BOARDWALK (MANGROVES TO NAVAL STORES)",
    "Item_Id": 2757,
    "Item_Type": "BUBBLER/DRINKING FOUNTAIN",
    "Item_Description": "DRINKING FOUNTAIN",
    "Latitude": -27.4753747,
    "Longitude": 153.0343597,
    "Easting": 503395,
    "Northing": 6960910
  },
  {
    "Ward": "THE GABBA",
    "Suburb": "KANGAROO POINT",
    "Property_Code": "D0680",
    "Park_Name": "KANGAROO POINT CLIFFS PARK",
    "Node_Id": 30243,
    "Node_Name": "RIVER TCE PICNIC AREA (OPP PATON ST)",
    "Item_Id": 24734,
    "Item_Type": "BUBBLER/DRINKING FOUNTAIN",
    "Item_Description": "DRINKING FOUNTAIN",
    "Latitude": -27.4786686,
    "Longitude": 153.0341844,
    "Easting": 503377,
    "Northing": 6960546
  },
  {
    "Ward": "THE GABBA",
    "Suburb": "KANGAROO POINT",
    "Property_Code": "D0680",
    "Park_Name": "KANGAROO POINT CLIFFS PARK",
    "Node_Id": 30245,
    "Node_Name": "RIVER TCE PICNIC AREA (OPP OZCARE)",
    "Item_Id": 122394,
    "Item_Type": "TAP COMBINATION",
    "Item_Description": "BUBBLER & 2 TAPS",
    "Latitude": -27.4777365,
    "Longitude": 153.034737,
    "Easting": 503432,
    "Northing": 6960649
  },
  {
    "Ward": "THE GABBA",
    "Suburb": "KANGAROO POINT",
    "Property_Code": "D0680",
    "Park_Name": "KANGAROO POINT CLIFFS PARK",
    "Node_Id": 30247,
    "Node_Name": "RIVER TCE PICNIC AREA (OPP WALMSLEY ST)",
    "Item_Id": 118387,
    "Item_Type": "BUBBLER/DRINKING FOUNTAIN",
    "Item_Description": "BUBBLER",
    "Latitude": -27.4817298,
    "Longitude": 153.0326631,
    "Easting": 503227,
    "Northing": 6960206
  },
  {
    "Ward": "THE GABBA",
    "Suburb": "KANGAROO POINT",
    "Property_Code": "D0680",
    "Park_Name": "KANGAROO POINT CLIFFS PARK",
    "Node_Id": 30247,
    "Node_Name": "RIVER TCE PICNIC AREA (OPP WALMSLEY ST)",
    "Item_Id": 24695,
    "Item_Type": "BUBBLER/DRINKING FOUNTAIN",
    "Item_Description": "BUBBLER/DRINKING FOUNTAIN",
    "Latitude": -27.481276,
    "Longitude": 153.0328882,
    "Easting": 503249,
    "Northing": 6960257
  },
  {
    "Ward": "THE GABBA",
    "Suburb": "KANGAROO POINT",
    "Property_Code": "D0680",
    "Park_Name": "KANGAROO POINT CLIFFS PARK",
    "Node_Id": 30253,
    "Node_Name": "KP CLIFFS LOWER PICNIC AREA",
    "Item_Id": 39783,
    "Item_Type": "TAP COMBINATION",
    "Item_Description": "BUBBLER & 2 TAPS",
    "Latitude": -27.479157,
    "Longitude": 153.03349,
    "Easting": 503309,
    "Northing": 6960491
  },
  {
    "Ward": "THE GABBA",
    "Suburb": "KANGAROO POINT",
    "Property_Code": "D0680",
    "Park_Name": "KANGAROO POINT CLIFFS PARK",
    "Node_Id": 30253,
    "Node_Name": "KP CLIFFS LOWER PICNIC AREA",
    "Item_Id": 118949,
    "Item_Type": "TAP COMBINATION",
    "Item_Description": "BUBBLER & 2 TAPS",
    "Latitude": -27.4785978,
    "Longitude": 153.0337429,
    "Easting": 503334,
    "Northing": 6960553
  },
  {
    "Ward": "THE GABBA",
    "Suburb": "KANGAROO POINT",
    "Property_Code": "D0680",
    "Park_Name": "KANGAROO POINT CLIFFS PARK",
    "Node_Id": 30253,
    "Node_Name": "KP CLIFFS LOWER PICNIC AREA",
    "Item_Id": 118945,
    "Item_Type": "TAP COMBINATION",
    "Item_Description": "BUBBLER & 2 TAPS",
    "Latitude": -27.4787188,
    "Longitude": 153.0338314,
    "Easting": 503342,
    "Northing": 6960540
  },
  {
    "Ward": "THE GABBA",
    "Suburb": "KANGAROO POINT",
    "Property_Code": "D0680",
    "Park_Name": "KANGAROO POINT CLIFFS PARK",
    "Node_Id": 30253,
    "Node_Name": "KP CLIFFS LOWER PICNIC AREA",
    "Item_Id": 27331,
    "Item_Type": "TAP COMBINATION",
    "Item_Description": "BUBBLER & 2 TAPS",
    "Latitude": -27.4788384,
    "Longitude": 153.0338514,
    "Easting": 503344,
    "Northing": 6960527
  },
  {
    "Ward": "THE GABBA",
    "Suburb": "SOUTH BRISBANE",
    "Property_Code": "D0350",
    "Park_Name": "MUSGRAVE PARK",
    "Node_Id": 14204,
    "Node_Name": "BALANCE OF PARK",
    "Item_Id": 39164,
    "Item_Type": "BUBBLER/DRINKING FOUNTAIN",
    "Item_Description": "DIABLED ACCESS BUBBLER",
    "Latitude": -27.4790157,
    "Longitude": 153.0167417,
    "Easting": 501654,
    "Northing": 6960507
  },
  {
    "Ward": "THE GABBA",
    "Suburb": "SOUTH BRISBANE",
    "Property_Code": "D0350",
    "Park_Name": "MUSGRAVE PARK",
    "Node_Id": 14204,
    "Node_Name": "BALANCE OF PARK",
    "Item_Id": 169459,
    "Item_Type": "TAP COMBINATION",
    "Item_Description": "BUBBLER & 2 TAPS",
    "Latitude": -27.4789287,
    "Longitude": 153.0153954,
    "Easting": 501521,
    "Northing": 6960517
  },
  {
    "Ward": "THE GABBA",
    "Suburb": "SOUTH BRISBANE",
    "Property_Code": "D0350",
    "Park_Name": "MUSGRAVE PARK",
    "Node_Id": 14204,
    "Node_Name": "BALANCE OF PARK",
    "Item_Id": 169369,
    "Item_Type": "TAP COMBINATION",
    "Item_Description": "BUBBLER & 2 TAPS",
    "Latitude": -27.4783766,
    "Longitude": 153.0159491,
    "Easting": 501576,
    "Northing": 6960578
  },
  {
    "Ward": "THE GABBA",
    "Suburb": "SOUTH BRISBANE",
    "Property_Code": "D0350",
    "Park_Name": "MUSGRAVE PARK",
    "Node_Id": 32811,
    "Node_Name": "MUSGRAVE PK CENTRAL SPINE PATHWAYS",
    "Item_Id": 169362,
    "Item_Type": "TAP COMBINATION",
    "Item_Description": "BUBBLER & 2 TAPS",
    "Latitude": -27.4790227,
    "Longitude": 153.0165019,
    "Easting": 501630,
    "Northing": 6960507
  },
  {
    "Ward": "THE GABBA",
    "Suburb": "SOUTH BRISBANE",
    "Property_Code": "D0350",
    "Park_Name": "MUSGRAVE PARK",
    "Node_Id": 14208,
    "Node_Name": "RUSSELL ST PLAYGROUND",
    "Item_Id": 169537,
    "Item_Type": "TAP COMBINATION",
    "Item_Description": "BUBBLER & 2 TAPS",
    "Latitude": -27.4781051,
    "Longitude": 153.0164338,
    "Easting": 501624,
    "Northing": 6960608
  },
  {
    "Ward": "THE GABBA",
    "Suburb": "SOUTH BRISBANE",
    "Property_Code": "D0350",
    "Park_Name": "MUSGRAVE PARK",
    "Node_Id": 14211,
    "Node_Name": "SOUTH BRISBANE FEDERAL BAND STORE",
    "Item_Id": 169371,
    "Item_Type": "TAP COMBINATION",
    "Item_Description": "BUBBLER & 2 TAPS",
    "Latitude": -27.4794783,
    "Longitude": 153.0161887,
    "Easting": 501599,
    "Northing": 6960456
  },
  {
    "Ward": "THE GABBA",
    "Suburb": "SOUTH BRISBANE",
    "Property_Code": "D0353",
    "Park_Name": "TRIBUNE STREET PARK",
    "Node_Id": 14191,
    "Node_Name": "BALANCE OF PARK",
    "Item_Id": 7312,
    "Item_Type": "TAP COMBINATION",
    "Item_Description": "BUBBLER 2 TAPS",
    "Latitude": -27.482236,
    "Longitude": 153.0211546,
    "Easting": 502090,
    "Northing": 6960151
  },
  {
    "Ward": "THE GABBA",
    "Suburb": "SOUTH BRISBANE",
    "Property_Code": "D1263",
    "Park_Name": "KURILPA POINT PARK",
    "Node_Id": 13986,
    "Node_Name": "BALANCE OF PARK",
    "Item_Id": 27543,
    "Item_Type": "BUBBLER/DRINKING FOUNTAIN",
    "Item_Description": "UNIT ATTACHED TO SEAT AND BIN",
    "Latitude": -27.4696866,
    "Longitude": 153.0171545,
    "Easting": 501695,
    "Northing": 6961541
  },
  {
    "Ward": "THE GABBA",
    "Suburb": "SOUTH BRISBANE",
    "Property_Code": "D1263",
    "Park_Name": "KURILPA POINT PARK",
    "Node_Id": 13990,
    "Node_Name": "WILLIAM JOLLY BRIDGE PICNIC AREA",
    "Item_Id": 191865,
    "Item_Type": "BUBBLER/DRINKING FOUNTAIN",
    "Item_Description": "BUBBLER/DRINKING FOUNTAIN",
    "Latitude": -27.4697019,
    "Longitude": 153.0151906,
    "Easting": 501501,
    "Northing": 6961539
  },
  {
    "Ward": "THE GABBA",
    "Suburb": "SOUTH BRISBANE",
    "Property_Code": "D1263",
    "Park_Name": "KURILPA POINT PARK",
    "Node_Id": 31345,
    "Node_Name": "KURILPA BRIDGE PICNIC AREA",
    "Item_Id": 118,
    "Item_Type": "TAP COMBINATION",
    "Item_Description": "BUBBLER & 2 TAPS",
    "Latitude": -27.4696999,
    "Longitude": 153.0162971,
    "Easting": 501610,
    "Northing": 6961539
  },
  {
    "Ward": "THE GABBA",
    "Suburb": "SOUTH BRISBANE",
    "Property_Code": "D1413",
    "Park_Name": "QUEENSLAND MARITIME MUSEUM PARK",
    "Node_Id": 13993,
    "Node_Name": "BALANCE OF PARK",
    "Item_Id": 170401,
    "Item_Type": "BUBBLER/DRINKING FOUNTAIN",
    "Item_Description": "DISABLED ACCESS FOUNTAIN",
    "Latitude": -27.4818665,
    "Longitude": 153.02536,
    "Easting": 502505,
    "Northing": 6960192
  },
  {
    "Ward": "THE GABBA",
    "Suburb": "WEST END",
    "Property_Code": "D0346",
    "Park_Name": "ORLEIGH PARK",
    "Node_Id": 14160,
    "Node_Name": "RIVERSIDE DVE SORRY PLACE (OPP FORBES ST)",
    "Item_Id": 180618,
    "Item_Type": "BUBBLER/DRINKING FOUNTAIN",
    "Item_Description": "DRINKING FOUNTAIN",
    "Latitude": -27.4864969,
    "Longitude": 152.9974571,
    "Easting": 499749,
    "Northing": 6959679
  },
  {
    "Ward": "THE GABBA",
    "Suburb": "WEST END",
    "Property_Code": "D0346",
    "Park_Name": "ORLEIGH PARK",
    "Node_Id": 14235,
    "Node_Name": "HILL END TCE DISTRICT PLAYGROUND",
    "Item_Id": 28671,
    "Item_Type": "TAP COMBINATION",
    "Item_Description": "BUBBLER & TAP",
    "Latitude": -27.4889602,
    "Longitude": 152.9974031,
    "Easting": 499743,
    "Northing": 6959406
  },
  {
    "Ward": "THE GABBA",
    "Suburb": "WEST END",
    "Property_Code": "D0346",
    "Park_Name": "ORLEIGH PARK",
    "Node_Id": 14239,
    "Node_Name": "BALANCE OF PARK",
    "Item_Id": 91744,
    "Item_Type": "TAP COMBINATION",
    "Item_Description": "BUBBLER & 2 TAPS",
    "Latitude": -27.4893814,
    "Longitude": 152.9973922,
    "Easting": 499742,
    "Northing": 6959359
  },
  {
    "Ward": "THE GABBA",
    "Suburb": "WEST END",
    "Property_Code": "D0346",
    "Park_Name": "ORLEIGH PARK",
    "Node_Id": 32064,
    "Node_Name": "BITUMEN",
    "Item_Id": 179906,
    "Item_Type": "BUBBLER/DRINKING FOUNTAIN",
    "Item_Description": "BUBBLER/DRINKING FOUNTAIN",
    "Latitude": -27.4870886,
    "Longitude": 152.9966995,
    "Easting": 499674,
    "Northing": 6959613
  },
  {
    "Ward": "THE GABBA",
    "Suburb": "WEST END",
    "Property_Code": "D0347",
    "Park_Name": "DAVIES PARK",
    "Node_Id": 14220,
    "Node_Name": "BALANCE OF PARK",
    "Item_Id": 36931,
    "Item_Type": "TAP COMBINATION",
    "Item_Description": "BUBBLER & TAP",
    "Latitude": -27.4784385,
    "Longitude": 153.006081,
    "Easting": 500601,
    "Northing": 6960571
  },
  {
    "Ward": "THE GABBA",
    "Suburb": "WEST END",
    "Property_Code": "D0347",
    "Park_Name": "DAVIES PARK",
    "Node_Id": 24490,
    "Node_Name": "JANE ST COMMUNITY GARDEN",
    "Item_Id": 67478,
    "Item_Type": "TAP COMBINATION",
    "Item_Description": "BUBBLER & TAP",
    "Latitude": -27.4789954,
    "Longitude": 153.0036649,
    "Easting": 500362,
    "Northing": 6960510
  },
  {
    "Ward": "THE GABBA",
    "Suburb": "WEST END",
    "Property_Code": "D0347",
    "Park_Name": "DAVIES PARK",
    "Node_Id": 32523,
    "Node_Name": "DAVIES PK SPORT & ROWING ACCESS & CAR PARKING",
    "Item_Id": 1074,
    "Item_Type": "BUBBLER/DRINKING FOUNTAIN",
    "Item_Description": "MEMORIAL DRINKING FOUNTAIN",
    "Latitude": -27.4771715,
    "Longitude": 153.0045885,
    "Easting": 500453,
    "Northing": 6960712
  },
  {
    "Ward": "THE GABBA",
    "Suburb": "WOOLLOONGABBA",
    "Property_Code": "D0362",
    "Park_Name": "WOOLLOONGABBA PLACE PARK",
    "Node_Id": 14453,
    "Node_Name": "BALANCE OF PARK",
    "Item_Id": 35336,
    "Item_Type": "BUBBLER/DRINKING FOUNTAIN",
    "Item_Description": "BUBBLER - DISABLED ACCESS",
    "Latitude": -27.4862701,
    "Longitude": 153.0364459,
    "Easting": 503600,
    "Northing": 6959703
  },
  {
    "Ward": "THE GABBA",
    "Suburb": "WOOLLOONGABBA",
    "Property_Code": "D1048",
    "Park_Name": "FAVERSHAM STREET PARK",
    "Node_Id": 14340,
    "Node_Name": "FAVERSHAM ST PLAYGROUND",
    "Item_Id": 33360,
    "Item_Type": "TAP COMBINATION",
    "Item_Description": "BUBBLER & 2 TAPS",
    "Latitude": -27.4963346,
    "Longitude": 153.0387601,
    "Easting": 503829,
    "Northing": 6958589
  },
  {
    "Ward": "THE GABBA",
    "Suburb": "WOOLLOONGABBA",
    "Property_Code": "D3533",
    "Park_Name": "CARL STREET PARK",
    "Node_Id": 33245,
    "Node_Name": "BALANCE OF PARK",
    "Item_Id": 182075,
    "Item_Type": "TAP COMBINATION",
    "Item_Description": "BUBBLER, TAP & DOG BOWL",
    "Latitude": -27.4998248,
    "Longitude": 153.037545,
    "Easting": 503708,
    "Northing": 6958202
  },
  {
    "Ward": "COORPAROO",
    "Suburb": "CAMP HILL",
    "Property_Code": "D0056",
    "Park_Name": "WHITES HILL RESERVE",
    "Node_Id": 23246,
    "Node_Name": "WHITES HILL & SANKEY'S CIRCUITS",
    "Item_Id": 39895,
    "Item_Type": "BUBBLER/DRINKING FOUNTAIN",
    "Item_Description": "DRINKING FOUNTAIN 3 LEVEL",
    "Latitude": -27.5088056,
    "Longitude": 153.0778366,
    "Easting": 507688,
    "Northing": 6957205
  },
  {
    "Ward": "COORPAROO",
    "Suburb": "CAMP HILL",
    "Property_Code": "D0056",
    "Park_Name": "WHITES HILL RESERVE",
    "Node_Id": 15919,
    "Node_Name": "BOUNDARY RD DOG OFF LEASH AREA (WHITES HILL RES)",
    "Item_Id": 180493,
    "Item_Type": "TAP COMBINATION",
    "Item_Description": "TAP COMBINATION",
    "Latitude": -27.5143541,
    "Longitude": 153.0742371,
    "Easting": 507332,
    "Northing": 6956591
  },
  {
    "Ward": "COORPAROO",
    "Suburb": "CAMP HILL",
    "Property_Code": "D0056",
    "Park_Name": "WHITES HILL RESERVE",
    "Node_Id": 13000,
    "Node_Name": "HOLLAND PARK HAWKS SOCCER FIELDS",
    "Item_Id": 78397,
    "Item_Type": "TAP COMBINATION",
    "Item_Description": "BUBBLER & TAP",
    "Latitude": -27.5079004,
    "Longitude": 153.0760068,
    "Easting": 507507,
    "Northing": 6957306
  },
  {
    "Ward": "COORPAROO",
    "Suburb": "CAMP HILL",
    "Property_Code": "D0056",
    "Park_Name": "WHITES HILL RESERVE",
    "Node_Id": 26645,
    "Node_Name": "WHITES HILL RESERVE MEMORIAL",
    "Item_Id": 78464,
    "Item_Type": "TAP COMBINATION",
    "Item_Description": "BUBBLER & 2 TAPS",
    "Latitude": -27.5094103,
    "Longitude": 153.0783333,
    "Easting": 507737,
    "Northing": 6957138
  },
  {
    "Ward": "COORPAROO",
    "Suburb": "CAMP HILL",
    "Property_Code": "D0056",
    "Park_Name": "WHITES HILL RESERVE",
    "Node_Id": 12999,
    "Node_Name": "BRISBANE METROPOLITAN TOUCH FIELDS",
    "Item_Id": 39883,
    "Item_Type": "TAP COMBINATION",
    "Item_Description": "BUBBLER & TAP",
    "Latitude": -27.511187,
    "Longitude": 153.0792351,
    "Easting": 507825,
    "Northing": 6956942
  },
  {
    "Ward": "COORPAROO",
    "Suburb": "CAMP HILL",
    "Property_Code": "D0056",
    "Park_Name": "WHITES HILL RESERVE",
    "Node_Id": 12999,
    "Node_Name": "BRISBANE METROPOLITAN TOUCH FIELDS",
    "Item_Id": 78367,
    "Item_Type": "TAP COMBINATION",
    "Item_Description": "BUBBLER & 2 TAPS",
    "Latitude": -27.509353,
    "Longitude": 153.0795827,
    "Easting": 507860,
    "Northing": 6957145
  },
  {
    "Ward": "COORPAROO",
    "Suburb": "CAMP HILL",
    "Property_Code": "D0056",
    "Park_Name": "WHITES HILL RESERVE",
    "Node_Id": 12999,
    "Node_Name": "BRISBANE METROPOLITAN TOUCH FIELDS",
    "Item_Id": 7042,
    "Item_Type": "TAP COMBINATION",
    "Item_Description": "BUBBLER & TAP",
    "Latitude": -27.5093605,
    "Longitude": 153.0796086,
    "Easting": 507862,
    "Northing": 6957144
  },
  {
    "Ward": "CHANDLER",
    "Suburb": "CHANDLER",
    "Property_Code": "D0065",
    "Park_Name": "TINGALPA CREEK RESERVE",
    "Node_Id": 12995,
    "Node_Name": "CHADWELL ST PICNIC AREA",
    "Item_Id": 78323,
    "Item_Type": "TAP COMBINATION",
    "Item_Description": "BUBBLER & TAP",
    "Latitude": -27.5017215,
    "Longitude": 153.1836525,
    "Easting": 518140,
    "Northing": 6957979
  },
  {
    "Ward": "COORPAROO",
    "Suburb": "CARINA HEIGHTS",
    "Property_Code": "D0867",
    "Park_Name": "OLIVIA DRIVE PARK",
    "Node_Id": 12857,
    "Node_Name": "OLIVIA DVE HALF COURT",
    "Item_Id": 21736,
    "Item_Type": "TAP COMBINATION",
    "Item_Description": "BUBBLER & TAP",
    "Latitude": -27.5142257,
    "Longitude": 153.0945292,
    "Easting": 509336,
    "Northing": 6956604
  },
  {
    "Ward": "CHANDLER",
    "Suburb": "CARINDALE",
    "Property_Code": "D0723",
    "Park_Name": "CARINDALE RECREATION RESERVE",
    "Node_Id": 29667,
    "Node_Name": "BEDIVERE ST ACCESS & CAR PARKING",
    "Item_Id": 180867,
    "Item_Type": "BUBBLER/DRINKING FOUNTAIN",
    "Item_Description": "DRINKING FOUNTAIN APOLLO 400",
    "Latitude": -27.4977273,
    "Longitude": 153.10851,
    "Easting": 510718,
    "Northing": 6958430
  },
  {
    "Ward": "CHANDLER",
    "Suburb": "CARINDALE",
    "Property_Code": "D0723",
    "Park_Name": "CARINDALE RECREATION RESERVE",
    "Node_Id": 12978,
    "Node_Name": "CARINDALE REC RES DISTRICT PLAYGROUND (OFF BEDIVERE ST)",
    "Item_Id": 104315,
    "Item_Type": "BUBBLER/DRINKING FOUNTAIN",
    "Item_Description": "DRINKING FOUNTAIN",
    "Latitude": -27.49686,
    "Longitude": 153.1088318,
    "Easting": 510750,
    "Northing": 6958526
  },
  {
    "Ward": "CHANDLER",
    "Suburb": "CARINDALE",
    "Property_Code": "D0723",
    "Park_Name": "CARINDALE RECREATION RESERVE",
    "Node_Id": 29665,
    "Node_Name": "BULIMBA CK OUTLOOK PICNIC AREA",
    "Item_Id": 81722,
    "Item_Type": "TAP COMBINATION",
    "Item_Description": "BUBBLER & 2 TAPS",
    "Latitude": -27.4978428,
    "Longitude": 153.1087926,
    "Easting": 510746,
    "Northing": 6958417
  },
  {
    "Ward": "CHANDLER",
    "Suburb": "CARINDALE",
    "Property_Code": "D0723",
    "Park_Name": "CARINDALE RECREATION RESERVE",
    "Node_Id": 12978,
    "Node_Name": "CARINDALE REC RES DISTRICT PLAYGROUND (OFF BEDIVERE ST)",
    "Item_Id": 32464,
    "Item_Type": "TAP COMBINATION",
    "Item_Description": "DRINKING FOUNTAIN APOLLO 400 DISABLED",
    "Latitude": -27.4972619,
    "Longitude": 153.1089948,
    "Easting": 510766,
    "Northing": 6958482
  },
  {
    "Ward": "CHANDLER",
    "Suburb": "CARINDALE",
    "Property_Code": "D0723",
    "Park_Name": "CARINDALE RECREATION RESERVE",
    "Node_Id": 23483,
    "Node_Name": "CARINDALE REC RES DOG OFF LEASH AREA (OFF BEDIVERE ST)",
    "Item_Id": 104492,
    "Item_Type": "TAP COMBINATION",
    "Item_Description": "BUBBLER 2 TAPS & DOG BOWL",
    "Latitude": -27.498071,
    "Longitude": 153.1092037,
    "Easting": 510787,
    "Northing": 6958392
  },
  {
    "Ward": "CHANDLER",
    "Suburb": "CARINDALE",
    "Property_Code": "D0723",
    "Park_Name": "CARINDALE RECREATION RESERVE",
    "Node_Id": 12981,
    "Node_Name": "BALANCE OF PARK",
    "Item_Id": 104466,
    "Item_Type": "TAP COMBINATION",
    "Item_Description": "BUBBLER & TAP",
    "Latitude": -27.4972822,
    "Longitude": 153.1098215,
    "Easting": 510848,
    "Northing": 6958479
  },
  {
    "Ward": "CHANDLER",
    "Suburb": "CARINDALE",
    "Property_Code": "D0856",
    "Park_Name": "SURBITON COURT PARK",
    "Node_Id": 22523,
    "Node_Name": "SURBITON CT PICNIC AREA",
    "Item_Id": 81744,
    "Item_Type": "TAP COMBINATION",
    "Item_Description": "BUBBLER & TAP",
    "Latitude": -27.5053885,
    "Longitude": 153.1051538,
    "Easting": 510386,
    "Northing": 6957582
  },
  {
    "Ward": "CHANDLER",
    "Suburb": "CARINDALE",
    "Property_Code": "D0856",
    "Park_Name": "SURBITON COURT PARK",
    "Node_Id": 22523,
    "Node_Name": "SURBITON CT PICNIC AREA",
    "Item_Id": 104197,
    "Item_Type": "TAP COMBINATION",
    "Item_Description": "BUBBLER & TAP",
    "Latitude": -27.5048647,
    "Longitude": 153.1052284,
    "Easting": 510393,
    "Northing": 6957640
  },
  {
    "Ward": "CHANDLER",
    "Suburb": "CARINDALE",
    "Property_Code": "D0862",
    "Park_Name": "BRIDGNORTH STREET PARK (NO.71)",
    "Node_Id": 12864,
    "Node_Name": "BRIDGNORTH ST PLAYGROUND",
    "Item_Id": 21636,
    "Item_Type": "TAP COMBINATION",
    "Item_Description": "BUBBLER & TAP",
    "Latitude": -27.5065399,
    "Longitude": 153.1111093,
    "Easting": 510974,
    "Northing": 6957454
  },
  {
    "Ward": "CHANDLER",
    "Suburb": "CARINDALE",
    "Property_Code": "D0863",
    "Park_Name": "BREENE COURT PARK",
    "Node_Id": 12858,
    "Node_Name": "TOOWONG BRIDGE CLUB",
    "Item_Id": 21654,
    "Item_Type": "TAP COMBINATION",
    "Item_Description": "BUBBLER & MAINTENANCE TAP",
    "Latitude": -27.5108375,
    "Longitude": 153.1120315,
    "Easting": 511065,
    "Northing": 6956978
  },
  {
    "Ward": "CHANDLER",
    "Suburb": "CARINDALE",
    "Property_Code": "D0879",
    "Park_Name": "MEADOWBANK STREET PARK",
    "Node_Id": 12840,
    "Node_Name": "MEADOWBANK ST SHARED PATHWAY NETWORK",
    "Item_Id": 4531,
    "Item_Type": "BUBBLER/DRINKING FOUNTAIN",
    "Item_Description": "BUBBLER",
    "Latitude": -27.5129344,
    "Longitude": 153.1079102,
    "Easting": 510657,
    "Northing": 6956746
  },
  {
    "Ward": "CHANDLER",
    "Suburb": "CARINDALE",
    "Property_Code": "D0880",
    "Park_Name": "WINSTANLEY STREET PARK",
    "Node_Id": 24289,
    "Node_Name": "BULIMBA CK WALK",
    "Item_Id": 11545,
    "Item_Type": "TAP COMBINATION",
    "Item_Description": "BUBBLER & TAP",
    "Latitude": -27.5104573,
    "Longitude": 153.108587,
    "Easting": 510724,
    "Northing": 6957020
  },
  {
    "Ward": "CHANDLER",
    "Suburb": "CARINDALE",
    "Property_Code": "D0880",
    "Park_Name": "WINSTANLEY STREET PARK",
    "Node_Id": 12833,
    "Node_Name": "EROMANGA ST PLAYGROUND",
    "Item_Id": 39417,
    "Item_Type": "TAP COMBINATION",
    "Item_Description": "BUBBLER & 2 TAPS",
    "Latitude": -27.5129867,
    "Longitude": 153.1093357,
    "Easting": 510798,
    "Northing": 6956740
  },
  {
    "Ward": "CHANDLER",
    "Suburb": "CARINDALE",
    "Property_Code": "D1237",
    "Park_Name": "GREENDALE PARK",
    "Node_Id": 12793,
    "Node_Name": "HENLEY CRT PLAYGROUND",
    "Item_Id": 6115,
    "Item_Type": "TAP COMBINATION",
    "Item_Description": "BUBBLER & TAP",
    "Latitude": -27.5210411,
    "Longitude": 153.1170366,
    "Easting": 511558,
    "Northing": 6955847
  },
  {
    "Ward": "CHANDLER",
    "Suburb": "CARINDALE",
    "Property_Code": "D1248",
    "Park_Name": "EDWARDS PARK",
    "Node_Id": 12786,
    "Node_Name": "EDWARDS PK JR PLAYGROUND (NEAR PORTMARNOCK WAY)",
    "Item_Id": 13165,
    "Item_Type": "TAP COMBINATION",
    "Item_Description": "BUBBLER & TAP",
    "Latitude": -27.5266336,
    "Longitude": 153.105749,
    "Easting": 510443,
    "Northing": 6955229
  },
  {
    "Ward": "CHANDLER",
    "Suburb": "CARINDALE",
    "Property_Code": "D1248",
    "Park_Name": "EDWARDS PARK",
    "Node_Id": 12785,
    "Node_Name": "EDWARDS PK JR PLAYGROUND (NEAR PICADILLY PLACE)",
    "Item_Id": 13166,
    "Item_Type": "TAP COMBINATION",
    "Item_Description": "BUBBLER & TAP",
    "Latitude": -27.5270717,
    "Longitude": 153.1073056,
    "Easting": 510596,
    "Northing": 6955180
  },
  {
    "Ward": "CHANDLER",
    "Suburb": "CARINDALE",
    "Property_Code": "D1417",
    "Park_Name": "GOLDEN OAK CRESCENT PARK",
    "Node_Id": 12769,
    "Node_Name": "GOLDEN OAK CRES PLAYGROUND",
    "Item_Id": 103314,
    "Item_Type": "TAP COMBINATION",
    "Item_Description": "BUBBLER & TAP",
    "Latitude": -27.5257252,
    "Longitude": 153.1158842,
    "Easting": 511444,
    "Northing": 6955328
  },
  {
    "Ward": "CHANDLER",
    "Suburb": "CARINDALE",
    "Property_Code": "D1452",
    "Park_Name": "NEWBURY PLACE PARK",
    "Node_Id": 21302,
    "Node_Name": "NEWBURY PLACE DOG OFF LEASH AREA",
    "Item_Id": 103386,
    "Item_Type": "TAP COMBINATION",
    "Item_Description": "BUBBLER & 2 TAPS",
    "Latitude": -27.5246676,
    "Longitude": 153.1201293,
    "Easting": 511863,
    "Northing": 6955445
  },
  {
    "Ward": "CHANDLER",
    "Suburb": "CARINDALE",
    "Property_Code": "D1615",
    "Park_Name": "GRANDVIEW PLACE PARK",
    "Node_Id": 12685,
    "Node_Name": "GRANDVIEW PLACE PICNIC AREA",
    "Item_Id": 28832,
    "Item_Type": "TAP COMBINATION",
    "Item_Description": "BUBBLER & TAP",
    "Latitude": -27.5168373,
    "Longitude": 153.1228974,
    "Easting": 512137,
    "Northing": 6956312
  },
  {
    "Ward": "CHANDLER",
    "Suburb": "CARINDALE",
    "Property_Code": "D1638",
    "Park_Name": "CRIBB ROAD PARK",
    "Node_Id": 12666,
    "Node_Name": "CROQUET GREEN",
    "Item_Id": 39399,
    "Item_Type": "BUBBLER/DRINKING FOUNTAIN",
    "Item_Description": "BUBBLER RED APOLLO 400",
    "Latitude": -27.5282416,
    "Longitude": 153.1196834,
    "Easting": 511818,
    "Northing": 6955049
  },
  {
    "Ward": "CHANDLER",
    "Suburb": "CARINDALE",
    "Property_Code": "D1638",
    "Park_Name": "CRIBB ROAD PARK",
    "Node_Id": 29699,
    "Node_Name": "OAKLEY ST PICNIC AREA",
    "Item_Id": 81810,
    "Item_Type": "TAP COMBINATION",
    "Item_Description": "BUBBLER & 2 TAPS",
    "Latitude": -27.5281814,
    "Longitude": 153.119491,
    "Easting": 511799,
    "Northing": 6955056
  },
  {
    "Ward": "CHANDLER",
    "Suburb": "MACKENZIE",
    "Property_Code": "D3121",
    "Park_Name": "TAYLOR PLACE PARK",
    "Node_Id": 30764,
    "Node_Name": "TAYLOR PLACE PLAYGROUND",
    "Item_Id": 183086,
    "Item_Type": "BUBBLER/DRINKING FOUNTAIN",
    "Item_Description": "BUBBLER",
    "Latitude": -27.5424159,
    "Longitude": 153.1197933,
    "Easting": 511828,
    "Northing": 6953479
  },
  {
    "Ward": "CHANDLER",
    "Suburb": "MANSFIELD",
    "Property_Code": "D0599",
    "Park_Name": "TONES ROAD PARK",
    "Node_Id": 12957,
    "Node_Name": "TONES RD DOG OFF LEASH AREA",
    "Item_Id": 30738,
    "Item_Type": "TAP COMBINATION",
    "Item_Description": "BUBBLER, TAP & DOG BOWL",
    "Latitude": -27.5310682,
    "Longitude": 153.1097165,
    "Easting": 510834,
    "Northing": 6954737
  },
  {
    "Ward": "CHANDLER",
    "Suburb": "MANSFIELD",
    "Property_Code": "D0661",
    "Park_Name": "TILLACK PARK",
    "Node_Id": 12946,
    "Node_Name": "BALANCE OF PARK",
    "Item_Id": 39963,
    "Item_Type": "TAP COMBINATION",
    "Item_Description": "BUBBLER & TAP",
    "Latitude": -27.5227138,
    "Longitude": 153.1016529,
    "Easting": 510038,
    "Northing": 6955663
  },
  {
    "Ward": "CHANDLER",
    "Suburb": "MANSFIELD",
    "Property_Code": "D0661",
    "Park_Name": "TILLACK PARK",
    "Node_Id": 11942,
    "Node_Name": "BLACKBERRY ST PICNIC AREA (SOUTH)",
    "Item_Id": 192692,
    "Item_Type": "TAP COMBINATION",
    "Item_Description": "BUBBLER",
    "Latitude": -27.5225231,
    "Longitude": 153.1021994,
    "Easting": 510092,
    "Northing": 6955684
  },
  {
    "Ward": "DOBOY",
    "Suburb": "BELMONT",
    "Property_Code": "D1227",
    "Park_Name": "PINNACLE PLACE PARK",
    "Node_Id": 13643,
    "Node_Name": "PINNACLE PLACE PLAYGROUND",
    "Item_Id": 23177,
    "Item_Type": "TAP COMBINATION",
    "Item_Description": "BUBBLER & TAP",
    "Latitude": -27.4840381,
    "Longitude": 153.1253011,
    "Easting": 512378,
    "Northing": 6959945
  },
  {
    "Ward": "DOBOY",
    "Suburb": "BELMONT",
    "Property_Code": "D1238",
    "Park_Name": "IONA CLOSE PARK",
    "Node_Id": 13642,
    "Node_Name": "IONA CLOSE PLAYGROUND",
    "Item_Id": 26043,
    "Item_Type": "TAP COMBINATION",
    "Item_Description": "BUBBLER & TAP",
    "Latitude": -27.48325,
    "Longitude": 153.1228799,
    "Easting": 512139,
    "Northing": 6960033
  },
  {
    "Ward": "DOBOY",
    "Suburb": "BELMONT",
    "Property_Code": "D1865",
    "Park_Name": "SUMMIT STREET PARK",
    "Node_Id": 29881,
    "Node_Name": "SUMMIT ST PICNIC AREA",
    "Item_Id": 113819,
    "Item_Type": "TAP COMBINATION",
    "Item_Description": "BUBBLER & TAP",
    "Latitude": -27.4903807,
    "Longitude": 153.1295784,
    "Easting": 512800,
    "Northing": 6959242
  },
  {
    "Ward": "DOBOY",
    "Suburb": "BELMONT",
    "Property_Code": "D1865",
    "Park_Name": "SUMMIT STREET PARK",
    "Node_Id": 29887,
    "Node_Name": "GIORDANO PLACE PLAYGROUND",
    "Item_Id": 113900,
    "Item_Type": "TAP COMBINATION",
    "Item_Description": "BUBBLER & TAP",
    "Latitude": -27.4891886,
    "Longitude": 153.129982,
    "Easting": 512840,
    "Northing": 6959374
  },
  {
    "Ward": "DOBOY",
    "Suburb": "CANNON HILL",
    "Property_Code": "D1934",
    "Park_Name": "SOUTHGATE AVENUE PARK",
    "Node_Id": 13512,
    "Node_Name": "BALANCE OF PARK",
    "Item_Id": 188197,
    "Item_Type": "TAP COMBINATION",
    "Item_Description": "BUBBLER & SINGLE TAP",
    "Latitude": -27.4658042,
    "Longitude": 153.0909191,
    "Easting": 508983,
    "Northing": 6961968
  },
  {
    "Ward": "DOBOY",
    "Suburb": "CARINA",
    "Property_Code": "D0062",
    "Park_Name": "JOE BRADFIELD CENTRE PARK",
    "Node_Id": 25325,
    "Node_Name": "JOE BRADFIELD PK SHARED PATHWAY",
    "Item_Id": 13710,
    "Item_Type": "BUBBLER/DRINKING FOUNTAIN",
    "Item_Description": "DRINKING FOUNTAIN",
    "Latitude": -27.4921044,
    "Longitude": 153.0907036,
    "Easting": 508960,
    "Northing": 6959054
  },
  {
    "Ward": "DOBOY",
    "Suburb": "CARINA",
    "Property_Code": "D0067",
    "Park_Name": "BELMONT RECREATION RESERVE",
    "Node_Id": 13841,
    "Node_Name": "NARRACOTT ST PLAYGROUND",
    "Item_Id": 13877,
    "Item_Type": "TAP COMBINATION",
    "Item_Description": "BUBBLER & TAP",
    "Latitude": -27.4952957,
    "Longitude": 153.0959318,
    "Easting": 509476,
    "Northing": 6958701
  },
  {
    "Ward": "DOBOY",
    "Suburb": "CARINA",
    "Property_Code": "D0597",
    "Park_Name": "PRESTON ROAD PARK",
    "Node_Id": 14179,
    "Node_Name": "MEADOWLANDS RD CANOE PONTOON & PICNIC FAILITIES",
    "Item_Id": 181405,
    "Item_Type": "BUBBLER/DRINKING FOUNTAIN",
    "Item_Description": "DISABLED ACCESS DRINKING FOUNTAIN",
    "Latitude": -27.4936427,
    "Longitude": 153.1192187,
    "Easting": 511776,
    "Northing": 6958882
  },
  {
    "Ward": "DOBOY",
    "Suburb": "CARINA",
    "Property_Code": "D0597",
    "Park_Name": "PRESTON ROAD PARK",
    "Node_Id": 13795,
    "Node_Name": "SOUTH BRISBANE SOFTBALL ASSOCIATION FIELDS",
    "Item_Id": 162403,
    "Item_Type": "TAP COMBINATION",
    "Item_Description": "BUBBLER & 2 TAPS",
    "Latitude": -27.4901164,
    "Longitude": 153.1165044,
    "Easting": 511508,
    "Northing": 6959273
  },
  {
    "Ward": "DOBOY",
    "Suburb": "CARINA",
    "Property_Code": "D0597",
    "Park_Name": "PRESTON ROAD PARK",
    "Node_Id": 13787,
    "Node_Name": "MEADOWLANDS RD DOG OFF LEASH AREA",
    "Item_Id": 161042,
    "Item_Type": "TAP COMBINATION",
    "Item_Description": "BUBBLER 2 TAPS & DOG BOWL",
    "Latitude": -27.4932971,
    "Longitude": 153.1165556,
    "Easting": 511513,
    "Northing": 6958920
  },
  {
    "Ward": "DOBOY",
    "Suburb": "CARINA",
    "Property_Code": "D0597",
    "Park_Name": "PRESTON ROAD PARK",
    "Node_Id": 13795,
    "Node_Name": "SOUTH BRISBANE SOFTBALL ASSOCIATION FIELDS",
    "Item_Id": 162401,
    "Item_Type": "TAP COMBINATION",
    "Item_Description": "BUBBLER & 2 TAPS",
    "Latitude": -27.4895223,
    "Longitude": 153.1166541,
    "Easting": 511523,
    "Northing": 6959338
  },
  {
    "Ward": "DOBOY",
    "Suburb": "CARINA",
    "Property_Code": "D0597",
    "Park_Name": "PRESTON ROAD PARK",
    "Node_Id": 13795,
    "Node_Name": "SOUTH BRISBANE SOFTBALL ASSOCIATION FIELDS",
    "Item_Id": 176099,
    "Item_Type": "TAP COMBINATION",
    "Item_Description": "BUBBLER & 2 TAPS",
    "Latitude": -27.4919173,
    "Longitude": 153.1171293,
    "Easting": 511570,
    "Northing": 6959073
  },
  {
    "Ward": "DOBOY",
    "Suburb": "CARINA",
    "Property_Code": "D0597",
    "Park_Name": "PRESTON ROAD PARK",
    "Node_Id": 13795,
    "Node_Name": "SOUTH BRISBANE SOFTBALL ASSOCIATION FIELDS",
    "Item_Id": 176098,
    "Item_Type": "TAP COMBINATION",
    "Item_Description": "BUBBLER & 2 TAPS",
    "Latitude": -27.4912337,
    "Longitude": 153.1172019,
    "Easting": 511577,
    "Northing": 6959149
  },
  {
    "Ward": "DOBOY",
    "Suburb": "CARINA",
    "Property_Code": "D0597",
    "Park_Name": "PRESTON ROAD PARK",
    "Node_Id": 13787,
    "Node_Name": "MEADOWLANDS RD DOG OFF LEASH AREA",
    "Item_Id": 29890,
    "Item_Type": "TAP COMBINATION",
    "Item_Description": "BUBBLER 2 TAPS & DOG BOWL",
    "Latitude": -27.4932093,
    "Longitude": 153.1175187,
    "Easting": 511608,
    "Northing": 6958930
  },
  {
    "Ward": "DOBOY",
    "Suburb": "CARINA",
    "Property_Code": "D0597",
    "Park_Name": "PRESTON ROAD PARK",
    "Node_Id": 13795,
    "Node_Name": "SOUTH BRISBANE SOFTBALL ASSOCIATION FIELDS",
    "Item_Id": 38730,
    "Item_Type": "TAP COMBINATION",
    "Item_Description": "BUBBLER & 2 TAPS",
    "Latitude": -27.4914481,
    "Longitude": 153.1178646,
    "Easting": 511643,
    "Northing": 6959125
  },
  {
    "Ward": "DOBOY",
    "Suburb": "CARINA",
    "Property_Code": "D0597",
    "Park_Name": "PRESTON ROAD PARK",
    "Node_Id": 29563,
    "Node_Name": "MEADOWLANDS RD PICNIC AREA (CADOGAN ST)",
    "Item_Id": 176176,
    "Item_Type": "TAP COMBINATION",
    "Item_Description": "BUBBLER & TAP",
    "Latitude": -27.4932845,
    "Longitude": 153.1180323,
    "Easting": 511659,
    "Northing": 6958921
  },
  {
    "Ward": "DOBOY",
    "Suburb": "CARINA",
    "Property_Code": "D0597",
    "Park_Name": "PRESTON ROAD PARK",
    "Node_Id": 13795,
    "Node_Name": "SOUTH BRISBANE SOFTBALL ASSOCIATION FIELDS",
    "Item_Id": 162394,
    "Item_Type": "TAP COMBINATION",
    "Item_Description": "BUBBLER & 2 TAPS",
    "Latitude": -27.4890978,
    "Longitude": 153.1181015,
    "Easting": 511666,
    "Northing": 6959385
  },
  {
    "Ward": "DOBOY",
    "Suburb": "CARINA",
    "Property_Code": "D0597",
    "Park_Name": "PRESTON ROAD PARK",
    "Node_Id": 13795,
    "Node_Name": "SOUTH BRISBANE SOFTBALL ASSOCIATION FIELDS",
    "Item_Id": 16420,
    "Item_Type": "TAP COMBINATION",
    "Item_Description": "BUBBLER & TAP",
    "Latitude": -27.4906155,
    "Longitude": 153.1182055,
    "Easting": 511676,
    "Northing": 6959217
  },
  {
    "Ward": "DOBOY",
    "Suburb": "CARINA",
    "Property_Code": "D0597",
    "Park_Name": "PRESTON ROAD PARK",
    "Node_Id": 14179,
    "Node_Name": "MEADOWLANDS RD CANOE PONTOON & PICNIC FAILITIES",
    "Item_Id": 43451,
    "Item_Type": "TAP COMBINATION",
    "Item_Description": "BUBBLER & 2 TAPS",
    "Latitude": -27.4936939,
    "Longitude": 153.1193265,
    "Easting": 511787,
    "Northing": 6958876
  },
  {
    "Ward": "DOBOY",
    "Suburb": "CARINA",
    "Property_Code": "D0908",
    "Park_Name": "REMBRANDT STREET PARK",
    "Node_Id": 13697,
    "Node_Name": "BALANCE OF PARK",
    "Item_Id": 34789,
    "Item_Type": "TAP COMBINATION",
    "Item_Description": "BUBBLER &TAP",
    "Latitude": -27.4777168,
    "Longitude": 153.0944614,
    "Easting": 509332,
    "Northing": 6960648
  },
  {
    "Ward": "DOBOY",
    "Suburb": "CARINA",
    "Property_Code": "D1343",
    "Park_Name": "IAN PAGE PARK",
    "Node_Id": 29545,
    "Node_Name": "SPRINGVALE PLACE PICNIC AREA",
    "Item_Id": 43523,
    "Item_Type": "TAP COMBINATION",
    "Item_Description": "BUBBLER & TAP",
    "Latitude": -27.4894553,
    "Longitude": 153.1032956,
    "Easting": 510204,
    "Northing": 6959347
  },
  {
    "Ward": "DOBOY",
    "Suburb": "HEMMANT",
    "Property_Code": "D0031",
    "Park_Name": "HEMMANT RECREATION RESERVE",
    "Node_Id": 24404,
    "Node_Name": "HEMMANT REC RES PICNIC AREA",
    "Item_Id": 123076,
    "Item_Type": "TAP COMBINATION",
    "Item_Description": "BUBBLER & 2 TAPS",
    "Latitude": -27.4504307,
    "Longitude": 153.1256024,
    "Easting": 512412,
    "Northing": 6963668
  },
  {
    "Ward": "DOBOY",
    "Suburb": "HEMMANT",
    "Property_Code": "D1752",
    "Park_Name": "PINNIBAR STREET PARK",
    "Node_Id": 13464,
    "Node_Name": "PINNIBAR ST PICNIC AREA",
    "Item_Id": 122991,
    "Item_Type": "BUBBLER/DRINKING FOUNTAIN",
    "Item_Description": "DRINKING FOUNTAIN",
    "Latitude": -27.4574834,
    "Longitude": 153.1286132,
    "Easting": 512708,
    "Northing": 6962886
  },
  {
    "Ward": "DOBOY",
    "Suburb": "MANLY WEST",
    "Property_Code": "D1131",
    "Park_Name": "SCHOONER CIRCUIT PARK",
    "Node_Id": 13734,
    "Node_Name": "BALANCE OF PARK",
    "Item_Id": 97189,
    "Item_Type": "TAP COMBINATION",
    "Item_Description": "BUBBLER & TAP",
    "Latitude": -27.4713444,
    "Longitude": 153.1611409,
    "Easting": 515920,
    "Northing": 6961347
  },
  {
    "Ward": "DOBOY",
    "Suburb": "MURARRIE",
    "Property_Code": "D1763",
    "Park_Name": "COLMSLIE BEACH RESERVE",
    "Node_Id": 23426,
    "Node_Name": "FISH MARKET PICNIC AREA (COLMSLIE BEACH)",
    "Item_Id": 25612,
    "Item_Type": "BUBBLER/DRINKING FOUNTAIN",
    "Item_Description": "DRINKING FOUNTAIN",
    "Latitude": -27.4502781,
    "Longitude": 153.0902225,
    "Easting": 508916,
    "Northing": 6963687
  },
  {
    "Ward": "DOBOY",
    "Suburb": "MURARRIE",
    "Property_Code": "D1763",
    "Park_Name": "COLMSLIE BEACH RESERVE",
    "Node_Id": 13451,
    "Node_Name": "'OCTOPUS GARDEN' DISTRICT PLAYGROUND (COLMSLIE BEACH)",
    "Item_Id": 43203,
    "Item_Type": "TAP COMBINATION",
    "Item_Description": "BUBBLER & TAP",
    "Latitude": -27.4511609,
    "Longitude": 153.0902473,
    "Easting": 508918,
    "Northing": 6963590
  },
  {
    "Ward": "DOBOY",
    "Suburb": "MURARRIE",
    "Property_Code": "D1763",
    "Park_Name": "COLMSLIE BEACH RESERVE",
    "Node_Id": 29577,
    "Node_Name": "COLMSLIE BEACH ACCESS & CAR PARKING",
    "Item_Id": 25613,
    "Item_Type": "TAP COMBINATION",
    "Item_Description": "BUBBLER & TAP",
    "Latitude": -27.450324,
    "Longitude": 153.0908016,
    "Easting": 508973,
    "Northing": 6963682
  },
  {
    "Ward": "DOBOY",
    "Suburb": "MURARRIE",
    "Property_Code": "D1815",
    "Park_Name": "CARNARVON WAY PARK",
    "Node_Id": 13501,
    "Node_Name": "BALANCE OF PARK",
    "Item_Id": 101232,
    "Item_Type": "TAP COMBINATION",
    "Item_Description": "BUBBLER & TAP",
    "Latitude": -27.4627869,
    "Longitude": 153.0951182,
    "Easting": 509398,
    "Northing": 6962302
  },
  {
    "Ward": "DOBOY",
    "Suburb": "MURARRIE",
    "Property_Code": "D1838",
    "Park_Name": "MOONIE AVENUE PARK",
    "Node_Id": 23435,
    "Node_Name": "MOONIE AVE LOOKOUT",
    "Item_Id": 101174,
    "Item_Type": "TAP COMBINATION",
    "Item_Description": "BUBBLER & TAP",
    "Latitude": -27.4591908,
    "Longitude": 153.0957902,
    "Easting": 509465,
    "Northing": 6962700
  },
  {
    "Ward": "DOBOY",
    "Suburb": "MURARRIE",
    "Property_Code": "D1931",
    "Park_Name": "CALLIOPE CIRCUIT PARK",
    "Node_Id": 23510,
    "Node_Name": "CENTRAL PARK PICNIC AREA",
    "Item_Id": 101443,
    "Item_Type": "TAP COMBINATION",
    "Item_Description": "BUBBLER & TAP",
    "Latitude": -27.4637576,
    "Longitude": 153.0945359,
    "Easting": 509341,
    "Northing": 6962194
  },
  {
    "Ward": "DOBOY",
    "Suburb": "MURARRIE",
    "Property_Code": "D2047",
    "Park_Name": "WYANDRA CRESCENT PARK",
    "Node_Id": 13409,
    "Node_Name": "WYANDRA CRESCENT (STOCKYARD PK) PLAYGROUND",
    "Item_Id": 101573,
    "Item_Type": "TAP COMBINATION",
    "Item_Description": "BUBBLER & TAP",
    "Latitude": -27.4626401,
    "Longitude": 153.0920968,
    "Easting": 509100,
    "Northing": 6962318
  },
  {
    "Ward": "DOBOY",
    "Suburb": "MURARRIE",
    "Property_Code": "D2993",
    "Park_Name": "MINGOOLA PARK",
    "Node_Id": 27989,
    "Node_Name": "MINGOOLA PK PICNIC AREA",
    "Item_Id": 162206,
    "Item_Type": "BUBBLER/DRINKING FOUNTAIN",
    "Item_Description": "BUBBLER",
    "Latitude": -27.4587748,
    "Longitude": 153.1015471,
    "Easting": 510034,
    "Northing": 6962745
  },
  {
    "Ward": "DOBOY",
    "Suburb": "TINGALPA",
    "Property_Code": "D0040",
    "Park_Name": "KIANAWAH PARK",
    "Node_Id": 13875,
    "Node_Name": "BALANCE OF PARK",
    "Item_Id": 176219,
    "Item_Type": "TAP COMBINATION",
    "Item_Description": "BUBBLER & TAP",
    "Latitude": -27.4754126,
    "Longitude": 153.1241749,
    "Easting": 512268,
    "Northing": 6960901
  },
  {
    "Ward": "DOBOY",
    "Suburb": "TINGALPA",
    "Property_Code": "D0040",
    "Park_Name": "KIANAWAH PARK",
    "Node_Id": 13875,
    "Node_Name": "BALANCE OF PARK",
    "Item_Id": 38478,
    "Item_Type": "TAP COMBINATION",
    "Item_Description": "BUBBLER & TAP",
    "Latitude": -27.4767211,
    "Longitude": 153.1251946,
    "Easting": 512368,
    "Northing": 6960755
  },
  {
    "Ward": "DOBOY",
    "Suburb": "TINGALPA",
    "Property_Code": "D0040",
    "Park_Name": "KIANAWAH PARK",
    "Node_Id": 13880,
    "Node_Name": "KIANAWAH PK EASTERN PICNIC AREA (WYNNUM RD)",
    "Item_Id": 176228,
    "Item_Type": "TAP COMBINATION",
    "Item_Description": "BUBBLER & 2 TAPS",
    "Latitude": -27.4755282,
    "Longitude": 153.1258585,
    "Easting": 512434,
    "Northing": 6960888
  },
  {
    "Ward": "DOBOY",
    "Suburb": "TINGALPA",
    "Property_Code": "D0040",
    "Park_Name": "KIANAWAH PARK",
    "Node_Id": 13873,
    "Node_Name": "GRAVEL",
    "Item_Id": 29883,
    "Item_Type": "TAP COMBINATION",
    "Item_Description": "BUBBLER 2 TAPS & DOG BOWL",
    "Latitude": -27.4753932,
    "Longitude": 153.126026,
    "Easting": 512451,
    "Northing": 6960902
  },